$GPGGA,120208.35,5159.8779,N,00422.5755,E,0,,100.000,0.000,M,,M,0,*42
$GNGSA,A,1,,,,,,,,,,,,,,,,,,,,,100.000,100.000,100.000*2F
$GPGSA,A,1,,,,,,,,,,,,,,,,,,,,,100.000,100.000,100.000*31
$GLGSA,A,1,,,,,,,,,,,,,,,,,,,,,100.000,100.000,100.000*2D
$BDGSA,A,1,,,,,,,,,,,,,,,,,,,,,100.000,100.000,100.000*20
$QZGSA,A,1,,,,,,,,,,,,,,,,,,,,,100.000,100.000,100.000*2D
$GPGSV,5,1,20,2,44,284,32,3,9,117,,4,62,67,32,5,13,296,*75
$GPGSV,5,2,20,6,48,216,,7,44,162,32,9,71,69,32,16,13,57,*46
$GPGSV,5,3,20,23,41,70,,26,10,31,,29,7,341,,30,17,187,*48
$GLGSV,5,4,20,65,41,78,,66,62,310,,67,13,280,,74,44,88,*63
$GLGSV,5,5,20,75,43,90,,76,22,147,,81,33,248,,82,34,311,*51
$GPRMC,120208.35,V,5159.8779,N,00422.5755,E,0.000,0.000,241119,,E,N*0D
$GPGGA,120209.34,5159.8779,N,00422.5755,E,0,,100.000,0.000,M,,M,0,*42
$GNGSA,A,1,,,,,,,,,,,,,,,,,,,,,100.000,100.000,100.000*2F
$GPGSA,A,1,,,,,,,,,,,,,,,,,,,,,100.000,100.000,100.000*31
$GLGSA,A,1,,,,,,,,,,,,,,,,,,,,,100.000,100.000,100.000*2D
$BDGSA,A,1,,,,,,,,,,,,,,,,,,,,,100.000,100.000,100.000*20
$QZGSA,A,1,,,,,,,,,,,,,,,,,,,,,100.000,100.000,100.000*2D
$GPGSV,5,1,20,2,44,284,37,3,9,117,,4,62,67,37,5,13,296,*75
$GPGSV,5,2,20,6,48,216,,7,44,162,38,9,71,69,39,16,13,57,*47
$GPGSV,5,3,20,23,41,70,,26,10,31,,29,7,341,32,30,17,187,*49
$GLGSV,5,4,20,65,41,78,,66,62,310,,67,13,280,,74,44,88,*63
$GLGSV,5,5,20,75,43,90,35,76,22,147,35,81,33,248,,82,34,311,35*57
$GPRMC,120209.34,V,5159.8779,N,00422.5755,E,0.000,0.000,241119,,E,N*0D
$GPGGA,120210.34,5159.8779,N,00422.5755,E,0,3,100.000,0.000,M,,M,0,*79
$GNGSA,A,1,2,7,9,,,,,,,,,,,,,,,,,,100.000,100.000,100.000*13
$GPGSA,A,1,2,7,9,,,,,,,,,,,,,,,,,,100.000,100.000,100.000*0D
$GLGSA,A,1,,,,,,,,,,,,,,,,,,,,,100.000,100.000,100.000*2D
$BDGSA,A,1,,,,,,,,,,,,,,,,,,,,,100.000,100.000,100.000*20
$QZGSA,A,1,,,,,,,,,,,,,,,,,,,,,100.000,100.000,100.000*2D
$GPGSV,5,1,20,2,44,284,38,3,9,117,,4,62,67,37,5,13,296,*7A
$GPGSV,5,2,20,6,48,216,28,7,44,162,37,9,71,69,41,16,13,57,34*4A
$GPGSV,5,3,20,23,41,70,17,26,10,31,27,29,7,341,36,30,17,187,17*48
$GLGSV,5,4,20,65,41,78,29,66,62,310,33,67,14,280,27,74,44,88,28*60
$GLGSV,5,5,20,75,43,90,35,76,22,147,35,81,33,248,22,82,34,311,35*57
$GPRMC,120210.34,V,5159.8779,N,00422.5755,E,0.000,0.000,241119,,E,N*05
$GPGGA,120212.00,5200.0001,N,00422.4069,E,0,5,1.660,28.966,M,,M,0,*4F
$GNGSA,A,1,2,6,7,9,29,,,,,,,,,,,,,,,,2.835,1.660,2.298*23
$GPGSA,A,1,2,6,7,9,29,,,,,,,,,,,,,,,,2.835,1.660,2.298*3D
$GLGSA,A,1,,,,,,,,,,,,,,,,,,,,,2.835,1.660,2.298*20
$BDGSA,A,1,,,,,,,,,,,,,,,,,,,,,2.835,1.660,2.298*2D
$QZGSA,A,1,,,,,,,,,,,,,,,,,,,,,2.835,1.660,2.298*20
$GPGSV,5,1,20,2,44,284,38,3,9,117,20,4,62,67,37,5,13,296,20*7A
$GPGSV,5,2,20,6,48,216,28,7,44,162,36,9,71,69,40,16,13,57,33*4D
$GPGSV,5,3,20,23,40,70,18,26,10,31,26,29,7,341,35,30,17,187,18*4B
$GLGSV,5,4,20,65,41,78,31,66,62,310,33,67,14,280,27,74,44,88,27*66
$GLGSV,5,5,20,75,43,90,35,76,22,147,30,81,33,248,20,82,34,311,36*53
$GPRMC,120212.00,V,5200.0001,N,00422.4069,E,4.564,0.000,241119,,E,N*05
$GPGGA,120213.77,5159.9993,N,00422.3960,E,1,12,1.205,37.141,M,,M,0,*7E
$GNGSA,A,3,2,6,7,9,16,29,65,66,67,74,75,82,,,,,,,,,2.294,1.205,1.952*27
$GPGSA,A,3,2,6,7,9,16,29,,,,,,,,,,,,,,,2.294,1.205,1.952*30
$GLGSA,A,3,65,66,67,74,75,82,,,,,,,,,,,,,,,2.294,1.205,1.952*23
$BDGSA,A,3,,,,,,,,,,,,,,,,,,,,,2.294,1.205,1.952*27
$QZGSA,A,3,,,,,,,,,,,,,,,,,,,,,2.294,1.205,1.952*2A
$GPGSV,5,1,20,2,44,284,39,3,9,117,25,4,62,67,37,5,13,296,22*7C
$GPGSV,5,2,20,6,48,216,31,7,44,162,37,9,71,69,41,16,13,57,32*44
$GPGSV,5,3,20,23,40,70,23,26,10,31,27,29,7,341,36,30,17,187,18*41
$GLGSV,5,4,20,65,41,78,32,66,62,310,35,67,14,280,30,74,44,88,31*62
$GLGSV,5,5,20,75,43,90,36,76,22,147,31,81,33,248,21,82,34,311,37*51
$GPRMC,120213.77,A,5159.9993,N,00422.3960,E,1.954,0.000,241119,,E,A*15
$GPGGA,120214.77,5159.9966,N,00422.4120,E,1,18,0.615,48.692,M,,M,0,*77
$GNGSA,A,3,2,3,5,6,7,9,16,23,26,29,30,65,66,67,74,75,81,82,,,1.118,0.615,0.934*2F
$GPGSA,A,3,2,3,5,6,7,9,16,23,26,29,30,,,,,,,,,,1.118,0.615,0.934*31
$GLGSA,A,3,65,66,67,74,75,81,82,,,,,,,,,,,,,,1.118,0.615,0.934*2B
$BDGSA,A,3,,,,,,,,,,,,,,,,,,,,,1.118,0.615,0.934*26
$QZGSA,A,3,,,,,,,,,,,,,,,,,,,,,1.118,0.615,0.934*2B
$GPGSV,5,1,20,2,44,284,39,3,9,117,24,4,62,67,38,5,13,296,23*73
$GPGSV,5,2,20,6,48,216,33,7,44,162,37,9,71,69,41,16,13,57,31*45
$GPGSV,5,3,20,23,40,70,23,26,10,31,26,29,7,341,36,30,17,187,17*4F
$GLGSV,5,4,20,65,41,78,32,66,62,310,35,67,14,280,30,74,44,88,30*63
$GLGSV,5,5,20,75,43,90,36,76,22,147,31,81,33,248,19,82,34,311,37*5A
$GPRMC,120214.77,A,5159.9966,N,00422.4120,E,0.641,0.000,241119,,E,A*19
$GPGGA,120216.00,5159.9897,N,00422.4045,E,1,18,0.941,12.408,M,,M,0,*78
$GNGSA,A,3,2,3,5,6,7,9,16,23,26,29,30,65,66,67,74,75,81,82,,,1.848,0.941,1.591*2F
$GPGSA,A,3,2,3,5,6,7,9,16,23,26,29,30,,,,,,,,,,1.848,0.941,1.591*31
$GLGSA,A,3,65,66,67,74,75,81,82,,,,,,,,,,,,,,1.848,0.941,1.591*2B
$BDGSA,A,3,,,,,,,,,,,,,,,,,,,,,1.848,0.941,1.591*26
$QZGSA,A,3,,,,,,,,,,,,,,,,,,,,,1.848,0.941,1.591*2B
$GPGSV,5,1,20,2,44,284,39,3,9,117,23,4,62,67,37,5,13,296,23*7B
$GPGSV,5,2,20,6,48,216,33,7,44,162,37,9,71,69,40,16,13,57,34*41
$GPGSV,5,3,20,23,40,70,20,26,10,31,26,29,7,341,37,30,17,187,17*4D
$GLGSV,5,4,20,65,41,78,31,66,62,310,34,67,14,280,26,74,44,88,29*6E
$GLGSV,5,5,20,75,43,90,36,76,22,147,30,81,33,248,19,82,34,311,35*59
$GPRMC,120216.00,A,5159.9897,N,00422.4045,E,0.319,0.000,241119,,E,A*1E
$GPGGA,120217.00,5159.9897,N,00422.4045,E,1,15,0.674,12.408,M,,M,0,*7D
$GNGSA,A,3,2,3,5,6,7,9,16,23,26,29,30,65,74,75,81,,,,,,1.253,0.674,1.056*23
$GPGSA,A,3,2,3,5,6,7,9,16,23,26,29,30,,,,,,,,,,1.253,0.674,1.056*36
$GLGSA,A,3,65,74,75,81,,,,,,,,,,,,,,,,,1.253,0.674,1.056*27
$BDGSA,A,3,,,,,,,,,,,,,,,,,,,,,1.253,0.674,1.056*21
$QZGSA,A,3,,,,,,,,,,,,,,,,,,,,,1.253,0.674,1.056*2C
$GPGSV,5,1,20,2,44,284,39,3,9,117,23,4,62,67,37,5,13,296,24*7C
$GPGSV,5,2,20,6,48,216,33,7,44,162,37,9,71,69,41,16,13,57,33*47
$GPGSV,5,3,20,23,40,70,20,26,10,31,26,29,7,341,36,30,17,187,23*4B
$GLGSV,5,4,20,65,41,78,30,66,62,310,33,67,14,280,26,74,44,88,30*60
$GLGSV,5,5,20,75,43,90,37,76,22,147,30,81,33,248,18,82,34,311,34*58
$GPRMC,120217.00,A,5159.9897,N,00422.4045,E,0.000,0.000,241119,,E,A*14
$GPGGA,120218.00,5159.9897,N,00422.4045,E,1,12,0.851,12.408,M,,M,0,*7C
$GNGSA,A,3,2,6,7,9,16,23,26,29,30,65,74,75,,,,,,,,,1.524,0.851,1.265*20
$GPGSA,A,3,2,6,7,9,16,23,26,29,30,,,,,,,,,,,,1.524,0.851,1.265*3C
$GLGSA,A,3,65,74,75,,,,,,,,,,,,,,,,,,1.524,0.851,1.265*22
$BDGSA,A,3,,,,,,,,,,,,,,,,,,,,,1.524,0.851,1.265*2D
$QZGSA,A,3,,,,,,,,,,,,,,,,,,,,,1.524,0.851,1.265*20
$GPGSV,5,1,20,2,44,284,40,3,9,117,24,4,62,67,37,5,13,296,21*70
$GPGSV,5,2,20,6,48,216,33,7,44,162,38,9,71,69,41,16,13,57,31*4A
$GPGSV,5,3,20,23,40,70,18,26,10,31,28,29,7,341,36,30,17,187,24*49
$GLGSV,5,4,20,65,41,78,30,66,62,310,34,67,14,280,28,74,44,88,31*68
$GLGSV,5,5,20,75,43,90,37,76,22,147,31,81,33,248,17,82,34,311,34*56
$GPRMC,120218.00,A,5159.9897,N,00422.4045,E,0.000,0.000,241119,,E,A*1B
$GPGGA,120219.00,5159.9897,N,00422.4045,E,1,12,0.851,12.408,M,,M,0,*7D
$GNGSA,A,3,2,6,7,9,16,23,26,29,30,65,74,75,,,,,,,,,1.524,0.851,1.265*20
$GPGSA,A,3,2,6,7,9,16,23,26,29,30,,,,,,,,,,,,1.524,0.851,1.265*3C
$GLGSA,A,3,65,74,75,,,,,,,,,,,,,,,,,,1.524,0.851,1.265*22
$BDGSA,A,3,,,,,,,,,,,,,,,,,,,,,1.524,0.851,1.265*2D
$QZGSA,A,3,,,,,,,,,,,,,,,,,,,,,1.524,0.851,1.265*20
$GPGSV,10,1,36,2,44,284,40,3,9,117,25,4,62,67,38,5,13,296,19*46
$GPGSV,10,2,36,6,48,216,34,7,44,162,38,9,71,69,40,16,13,56,31*7E
$GPGSV,10,3,36,23,40,70,19,26,10,31,30,29,7,341,36,30,17,187,25*73
$GLGSV,10,4,36,65,41,78,32,66,62,310,34,67,14,280,29,74,44,88,31*58
$GLGSV,10,5,36,75,43,90,37,76,22,147,31,81,33,248,17,82,34,311,36*67
$GLGSV,10,6,36,83,6,352,,88,6,209,*53
$BDGSV,10,7,36,201,5,,,202,20,130,,203,5,,,204,5,,*5A
$BDGSV,10,8,36,205,32,180,,206,18,50,,207,5,,,208,73,205,*6A
$BDGSV,10,9,36,209,43,205,,210,5,,,211,6,25,,212,5,,*5F
$BDGSV,10,10,36,213,5,,,214,5,,*6A
$GPRMC,120219.00,A,5159.9897,N,00422.4045,E,0.000,0.000,241119,,E,A*1A
$GPGGA,120220.00,5159.9897,N,00422.4045,E,1,14,0.758,12.408,M,,M,0,*77
$GNGSA,A,3,2,5,6,7,9,16,23,26,29,30,65,74,75,81,,,,,,,1.460,0.758,1.248*14
$GPGSA,A,3,2,5,6,7,9,16,23,26,29,30,,,,,,,,,,,1.460,0.758,1.248*01
$GLGSA,A,3,65,74,75,81,,,,,,,,,,,,,,,,,1.460,0.758,1.248*23
$BDGSA,A,3,,,,,,,,,,,,,,,,,,,,,1.460,0.758,1.248*25
$QZGSA,A,3,,,,,,,,,,,,,,,,,,,,,1.460,0.758,1.248*28
$GPGSV,10,1,36,2,44,284,37,3,9,117,27,4,62,67,35,5,13,296,17*47
$GPGSV,10,2,36,6,48,216,33,7,44,162,36,9,71,69,37,16,13,56,30*76
$GPGSV,10,3,36,23,40,70,22,26,10,31,31,29,7,341,34,30,17,187,23*7E
$GLGSV,10,4,36,65,41,78,32,66,62,310,34,67,14,280,30,74,44,88,31*50
$GLGSV,10,5,36,75,43,90,36,76,22,147,31,81,33,248,17,82,34,311,36*66
$GLGSV,10,6,36,83,6,352,,88,6,209,*53
$BDGSV,10,7,36,201,5,,,202,20,130,,203,5,,,204,5,,*5A
$BDGSV,10,8,36,205,32,180,,206,18,50,,207,5,,,208,73,205,*6A
$BDGSV,10,9,36,209,43,205,,210,5,,,211,6,25,,212,5,,*5F
$BDGSV,10,10,36,213,5,,,214,5,,*6A
$GPRMC,120220.00,A,5159.9897,N,00422.4045,E,0.000,0.000,241119,,E,A*10
$GPGGA,120221.00,5159.9897,N,00422.4045,E,1,14,0.758,12.408,M,,M,0,*76
$GNGSA,A,3,2,5,6,7,9,16,23,26,29,30,65,74,75,81,,,,,,,1.460,0.758,1.248*14
$GPGSA,A,3,2,5,6,7,9,16,23,26,29,30,,,,,,,,,,,1.460,0.758,1.248*01
$GLGSA,A,3,65,74,75,81,,,,,,,,,,,,,,,,,1.460,0.758,1.248*23
$BDGSA,A,3,,,,,,,,,,,,,,,,,,,,,1.460,0.758,1.248*25
$QZGSA,A,3,,,,,,,,,,,,,,,,,,,,,1.460,0.758,1.248*28
$GPGSV,10,1,36,2,44,284,36,3,9,117,28,4,62,67,36,5,13,296,19*44
$GPGSV,10,2,36,6,48,216,35,7,44,162,39,9,71,69,40,16,13,56,31*7E
$GPGSV,10,3,36,23,40,70,26,26,10,31,31,29,7,341,33,30,17,187,19*74
$GLGSV,10,4,36,65,41,78,33,66,62,310,35,67,14,280,30,74,44,88,32*53
$GLGSV,10,5,36,75,43,90,38,76,22,147,30,81,33,248,19,82,34,311,37*66
$GLGSV,10,6,36,83,6,352,,88,6,209,*53
$BDGSV,10,7,36,201,5,,,202,20,130,,203,5,,,204,5,,*5A
$BDGSV,10,8,36,205,32,180,,206,18,50,,207,5,,,208,73,205,*6A
$BDGSV,10,9,36,209,43,205,,210,5,,,211,6,25,,212,5,,*5F
$BDGSV,10,10,36,213,5,,,214,5,,*6A
$GPRMC,120221.00,A,5159.9897,N,00422.4045,E,0.000,0.000,241119,,E,A*11
$GPGGA,120222.00,5159.9897,N,00422.4045,E,1,13,1.060,12.408,M,,M,0,*7F
$GNGSA,A,3,2,5,6,7,9,16,23,26,29,65,74,75,81,,,,,,,,2.029,1.060,1.730*1A
$GPGSA,A,3,2,5,6,7,9,16,23,26,29,,,,,,,,,,,,2.029,1.060,1.730*0F
$GLGSA,A,3,65,74,75,81,,,,,,,,,,,,,,,,,2.029,1.060,1.730*2E
$BDGSA,A,3,,,,,,,,,,,,,,,,,,,,,2.029,1.060,1.730*28
$QZGSA,A,3,,,,,,,,,,,,,,,,,,,,,2.029,1.060,1.730*25
$GPGSV,10,1,36,2,44,284,38,3,9,117,30,4,62,67,36,5,13,296,17*4D
$GPGSV,10,2,36,6,48,216,35,7,44,162,39,9,71,69,41,16,13,56,31*7F
$GPGSV,10,3,36,23,40,70,31,26,10,31,32,29,7,341,34,30,17,187,23*7F
$GLGSV,10,4,36,65,41,78,32,66,62,310,35,67,14,280,31,74,44,88,34*55
$GLGSV,10,5,36,75,43,90,40,76,22,147,30,81,33,248,20,82,34,311,40*63
$GLGSV,10,6,36,83,6,352,,88,6,209,*53
$BDGSV,10,7,36,201,5,,,202,20,130,,203,5,,,204,5,,*5A
$BDGSV,10,8,36,205,32,180,,206,18,50,,207,5,,,208,73,205,*6A
$BDGSV,10,9,36,209,43,205,,210,5,,,211,6,25,,212,5,,*5F
$BDGSV,10,10,36,213,5,,,214,5,,*6A
$GPRMC,120222.00,A,5159.9897,N,00422.4045,E,0.000,0.000,241119,,E,A*12
$GPGGA,120223.00,5159.9897,N,00422.4045,E,1,13,1.060,12.408,M,,M,0,*7E
$GNGSA,A,3,2,5,6,7,9,16,23,26,29,65,74,75,81,,,,,,,,2.030,1.060,1.731*13
$GPGSA,A,3,2,5,6,7,9,16,23,26,29,,,,,,,,,,,,2.030,1.060,1.731*06
$GLGSA,A,3,65,74,75,81,,,,,,,,,,,,,,,,,2.030,1.060,1.731*27
$BDGSA,A,3,,,,,,,,,,,,,,,,,,,,,2.030,1.060,1.731*21
$QZGSA,A,3,,,,,,,,,,,,,,,,,,,,,2.030,1.060,1.731*2C
$GPGSV,10,1,36,2,44,284,38,3,9,117,28,4,62,67,37,5,13,296,24*45
$GPGSV,10,2,36,6,48,216,34,7,44,162,40,9,71,69,42,16,13,56,28*7B
$GPGSV,10,3,36,23,40,70,32,26,10,31,32,29,7,341,35,30,17,187,27*79
$GLGSV,10,4,36,65,41,78,31,66,62,310,33,67,14,280,30,74,44,88,36*53
$GLGSV,10,5,36,75,43,90,40,76,22,147,30,81,33,248,22,82,34,311,41*60
$GLGSV,10,6,36,83,6,352,24,88,6,209,*55
$BDGSV,10,7,36,201,5,,,202,20,130,,203,5,,,204,5,,*5A
$BDGSV,10,8,36,205,32,180,,206,18,50,,207,5,,,208,73,205,*6A
$BDGSV,10,9,36,209,43,205,,210,5,,,211,6,25,,212,5,,*5F
$BDGSV,10,10,36,213,5,,,214,5,,*6A
$GPRMC,120223.00,A,5159.9897,N,00422.4045,E,0.000,0.000,241119,,E,A*13
$GPGGA,120224.00,5159.9897,N,00422.4045,E,1,13,1.060,12.408,M,,M,0,*79
$GNGSA,A,3,2,5,6,7,9,16,23,26,29,65,74,75,81,,,,,,,,2.030,1.060,1.731*13
$GPGSA,A,3,2,5,6,7,9,16,23,26,29,,,,,,,,,,,,2.030,1.060,1.731*06
$GLGSA,A,3,65,74,75,81,,,,,,,,,,,,,,,,,2.030,1.060,1.731*27
$BDGSA,A,3,,,,,,,,,,,,,,,,,,,,,2.030,1.060,1.731*21
$QZGSA,A,3,,,,,,,,,,,,,,,,,,,,,2.030,1.060,1.731*2C
$GPGSV,10,1,36,2,44,283,37,3,9,117,28,4,62,67,36,5,13,296,26*4E
$GPGSV,10,2,36,6,48,216,31,7,44,162,40,9,71,69,42,16,13,56,27*71
$GPGSV,10,3,36,23,40,70,32,26,10,31,31,29,7,341,35,30,17,187,28*75
$GLGSV,10,4,36,65,41,78,32,66,62,310,30,67,14,280,29,74,44,88,34*59
$GLGSV,10,5,36,75,43,90,40,76,22,147,29,81,33,248,22,82,34,311,42*6B
$GLGSV,10,6,36,83,6,352,24,88,6,209,*55
$BDGSV,10,7,36,201,5,,,202,20,130,,203,5,,,204,5,,*5A
$BDGSV,10,8,36,205,32,180,,206,18,50,,207,5,,,208,73,205,*6A
$BDGSV,10,9,36,209,43,205,,210,5,,,211,6,25,,212,5,,*5F
$BDGSV,10,10,36,213,5,,,214,5,,*6A
$GPRMC,120224.00,A,5159.9897,N,00422.4045,E,0.000,0.000,241119,,E,A*14
$GPGGA,120225.00,5159.9897,N,00422.4045,E,1,13,1.060,12.408,M,,M,0,*78
$GNGSA,A,3,2,5,6,7,9,16,23,26,29,65,74,75,81,,,,,,,,2.030,1.060,1.731*13
$GPGSA,A,3,2,5,6,7,9,16,23,26,29,,,,,,,,,,,,2.030,1.060,1.731*06
$GLGSA,A,3,65,74,75,81,,,,,,,,,,,,,,,,,2.030,1.060,1.731*27
$BDGSA,A,3,,,,,,,,,,,,,,,,,,,,,2.030,1.060,1.731*21
$QZGSA,A,3,,,,,,,,,,,,,,,,,,,,,2.030,1.060,1.731*2C
$GPGSV,10,1,36,2,44,283,37,3,9,117,29,4,62,67,36,5,13,296,28*41
$GPGSV,10,2,36,6,48,216,31,7,44,162,40,9,71,69,42,16,13,56,23*75
$GPGSV,10,3,36,23,40,70,32,26,10,31,30,29,7,341,36,30,17,187,29*76
$GLGSV,10,4,36,65,41,78,30,66,62,310,30,67,14,280,27,74,44,88,34*55
$GLGSV,10,5,36,75,43,90,39,76,22,147,29,81,33,248,21,82,34,311,42*66
$GLGSV,10,6,36,83,6,352,22,88,6,209,*53
$BDGSV,10,7,36,201,5,,,202,20,130,,203,5,,,204,5,,*5A
$BDGSV,10,8,36,205,32,180,,206,18,50,,207,5,,,208,73,205,*6A
$BDGSV,10,9,36,209,43,205,,210,5,,,211,6,25,,212,5,,*5F
$BDGSV,10,10,36,213,5,,,214,5,,*6A
$GPRMC,120225.00,A,5159.9897,N,00422.4045,E,0.000,0.000,241119,,E,A*15
$GPGGA,120226.00,5159.9897,N,00422.4045,E,1,15,0.674,12.408,M,,M,0,*7F
$GNGSA,A,3,2,3,5,6,7,9,16,23,26,29,30,65,74,75,81,,,,,,1.253,0.674,1.056*23
$GPGSA,A,3,2,3,5,6,7,9,16,23,26,29,30,,,,,,,,,,1.253,0.674,1.056*36
$GLGSA,A,3,65,74,75,81,,,,,,,,,,,,,,,,,1.253,0.674,1.056*27
$BDGSA,A,3,,,,,,,,,,,,,,,,,,,,,1.253,0.674,1.056*21
$QZGSA,A,3,,,,,,,,,,,,,,,,,,,,,1.253,0.674,1.056*2C
$GPGSV,10,1,36,2,44,283,39,3,9,117,29,4,62,67,38,5,13,296,28*41
$GPGSV,10,2,36,6,48,216,31,7,44,162,40,9,71,69,43,16,13,56,20*77
$GPGSV,10,3,36,23,40,70,29,26,10,31,29,29,7,341,35,30,17,187,29*77
$GLGSV,10,4,36,65,41,78,30,66,62,310,31,67,14,280,31,74,44,88,34*53
$GLGSV,10,5,36,75,43,90,40,76,22,147,28,81,33,248,23,82,34,311,42*6B
$GLGSV,10,6,36,83,6,352,23,88,6,209,*52
$BDGSV,10,7,36,201,5,,,202,20,130,,203,5,,,204,5,,*5A
$BDGSV,10,8,36,205,32,180,,206,18,50,,207,5,,,208,73,205,*6A
$BDGSV,10,9,36,209,43,205,,210,5,,,211,6,25,,212,5,,*5F
$BDGSV,10,10,36,213,5,,,214,5,,*6A
$GPRMC,120226.00,A,5159.9897,N,00422.4045,E,0.000,0.000,241119,,E,A*16
$GPGGA,120227.00,5159.9897,N,00422.4045,E,1,15,0.674,12.408,M,,M,0,*7E
$GNGSA,A,3,2,3,5,6,7,9,16,23,26,29,30,65,74,75,81,,,,,,1.253,0.674,1.056*23
$GPGSA,A,3,2,3,5,6,7,9,16,23,26,29,30,,,,,,,,,,1.253,0.674,1.056*36
$GLGSA,A,3,65,74,75,81,,,,,,,,,,,,,,,,,1.253,0.674,1.056*27
$BDGSA,A,3,,,,,,,,,,,,,,,,,,,,,1.253,0.674,1.056*21
$QZGSA,A,3,,,,,,,,,,,,,,,,,,,,,1.253,0.674,1.056*2C
$GPGSV,10,1,36,2,44,283,38,3,9,117,30,4,62,67,37,5,13,296,28*47
$GPGSV,10,2,36,6,48,216,31,7,44,162,40,9,71,69,43,16,13,56,26*71
$GPGSV,10,3,36,23,40,70,29,26,10,31,29,29,7,341,35,30,17,187,29*77
$GLGSV,10,4,36,65,41,78,29,66,62,310,32,67,14,280,31,74,44,88,34*58
$GLGSV,10,5,36,75,43,90,40,76,22,147,27,81,33,248,24,82,34,311,41*60
$GLGSV,10,6,36,83,6,352,24,88,6,209,*55
$BDGSV,10,7,36,201,5,,,202,20,130,,203,5,,,204,5,,*5A
$BDGSV,10,8,36,205,32,180,,206,18,50,,207,5,,,208,73,205,*6A
$BDGSV,10,9,36,209,43,205,,210,5,,,211,6,25,,212,5,,*5F
$BDGSV,10,10,36,213,5,,,214,5,,*6A
$GPRMC,120227.00,A,5159.9897,N,00422.4045,E,0.000,0.000,241119,,E,A*17
$GPGGA,120228.00,5159.9897,N,00422.4045,E,1,15,0.674,12.408,M,,M,0,*71
$GNGSA,A,3,2,3,5,6,7,9,16,23,26,29,30,65,74,75,81,,,,,,1.253,0.674,1.056*23
$GPGSA,A,3,2,3,5,6,7,9,16,23,26,29,30,,,,,,,,,,1.253,0.674,1.056*36
$GLGSA,A,3,65,74,75,81,,,,,,,,,,,,,,,,,1.253,0.674,1.056*27
$BDGSA,A,3,,,,,,,,,,,,,,,,,,,,,1.253,0.674,1.056*21
$QZGSA,A,3,,,,,,,,,,,,,,,,,,,,,1.253,0.674,1.056*2C
$GPGSV,10,1,36,2,44,283,39,3,9,117,30,4,62,67,37,5,13,296,27*49
$GPGSV,10,2,36,6,48,216,30,7,44,162,41,9,71,69,43,16,13,56,29*7E
$GPGSV,10,3,36,23,40,70,29,26,9,31,29,29,7,341,35,30,17,187,29*4F
$GLGSV,10,4,36,65,41,78,29,66,62,310,33,67,14,280,32,74,44,88,33*5D
$GLGSV,10,5,36,75,43,90,39,76,22,147,27,81,33,248,23,82,34,311,41*69
$GLGSV,10,6,36,83,6,352,23,88,6,209,*52
$BDGSV,10,7,36,201,5,,,202,20,130,,203,5,,,204,5,,*5A
$BDGSV,10,8,36,205,32,180,,206,18,50,,207,5,,,208,73,205,*6A
$BDGSV,10,9,36,209,43,205,,210,5,,,211,6,25,,212,5,,*5F
$BDGSV,10,10,36,213,5,,,214,5,,*6A
$GPRMC,120228.00,A,5159.9897,N,00422.4045,E,0.000,0.000,241119,,E,A*18
$GPGGA,120229.00,5159.9897,N,00422.4045,E,1,15,0.674,12.408,M,,M,0,*70
$GNGSA,A,3,2,3,5,6,7,9,16,23,26,29,30,65,74,75,81,,,,,,1.253,0.674,1.057*22
$GPGSA,A,3,2,3,5,6,7,9,16,23,26,29,30,,,,,,,,,,1.253,0.674,1.057*37
$GLGSA,A,3,65,74,75,81,,,,,,,,,,,,,,,,,1.253,0.674,1.057*26
$BDGSA,A,3,,,,,,,,,,,,,,,,,,,,,1.253,0.674,1.057*20
$QZGSA,A,3,,,,,,,,,,,,,,,,,,,,,1.253,0.674,1.057*2D
$GPGSV,10,1,36,2,44,283,39,3,9,117,20,4,62,67,36,5,13,296,26*48
$GPGSV,10,2,36,6,48,216,22,7,44,162,34,9,71,69,43,16,13,56,34*73
$GPGSV,10,3,36,23,40,70,32,26,9,31,27,29,7,341,36,30,17,187,32*42
$GLGSV,10,4,36,65,41,78,32,66,62,310,32,67,14,280,29,74,44,88,32*5D
$GLGSV,10,5,36,75,43,90,36,76,22,147,23,81,33,248,27,82,34,311,41*66
$GLGSV,10,6,36,83,6,352,18,88,6,209,*5A
$BDGSV,10,7,36,201,5,,,202,20,130,,203,5,,,204,5,,*5A
$BDGSV,10,8,36,205,32,180,,206,18,50,,207,5,,,208,73,205,*6A
$BDGSV,10,9,36,209,43,205,,210,5,,,211,6,25,,212,5,,*5F
$BDGSV,10,10,36,213,5,,,214,5,,*6A
$GPRMC,120229.00,A,5159.9897,N,00422.4045,E,0.000,0.000,241119,,E,A*19
$GPGGA,120230.00,5159.9897,N,00422.4045,E,1,15,0.674,12.408,M,,M,0,*78
$GNGSA,A,3,2,3,5,6,7,9,16,23,26,29,30,65,74,75,81,,,,,,1.254,0.674,1.057*25
$GPGSA,A,3,2,3,5,6,7,9,16,23,26,29,30,,,,,,,,,,1.254,0.674,1.057*30
$GLGSA,A,3,65,74,75,81,,,,,,,,,,,,,,,,,1.254,0.674,1.057*21
$BDGSA,A,3,,,,,,,,,,,,,,,,,,,,,1.254,0.674,1.057*27
$QZGSA,A,3,,,,,,,,,,,,,,,,,,,,,1.254,0.674,1.057*2A
$GPGSV,10,1,36,2,44,283,39,3,9,117,26,4,62,67,35,5,13,296,27*4C
$GPGSV,10,2,36,6,48,216,29,7,44,162,37,9,71,69,42,16,13,56,31*7F
$GPGSV,10,3,36,23,40,70,28,26,9,31,27,29,7,341,37,30,17,187,30*4A
$GLGSV,10,4,36,65,41,78,28,66,62,310,32,67,14,280,28,74,44,88,29*5D
$GLGSV,10,5,36,75,43,90,36,76,22,147,20,81,33,248,26,82,34,311,38*6A
$GLGSV,10,6,36,83,6,352,,88,6,209,*53
$BDGSV,10,7,36,201,5,,,202,20,130,,203,5,,,204,5,,*5A
$BDGSV,10,8,36,205,32,180,,206,18,50,,207,5,,,208,73,205,*6A
$BDGSV,10,9,36,209,43,205,,210,5,,,211,6,25,,212,5,,*5F
$BDGSV,10,10,36,213,5,,,214,5,,*6A
$GPRMC,120230.00,A,5159.9897,N,00422.4045,E,0.000,0.000,241119,,E,A*11
$GPGGA,120231.00,5159.9897,N,00422.4045,E,1,15,0.674,12.408,M,,M,0,*79
$GNGSA,A,3,2,3,5,6,7,9,16,23,26,29,30,65,74,75,81,,,,,,1.254,0.674,1.057*25
$GPGSA,A,3,2,3,5,6,7,9,16,23,26,29,30,,,,,,,,,,1.254,0.674,1.057*30
$GLGSA,A,3,65,74,75,81,,,,,,,,,,,,,,,,,1.254,0.674,1.057*21
$BDGSA,A,3,,,,,,,,,,,,,,,,,,,,,1.254,0.674,1.057*27
$QZGSA,A,3,,,,,,,,,,,,,,,,,,,,,1.254,0.674,1.057*2A
$GPGSV,10,1,36,2,44,283,38,3,9,117,28,4,62,67,35,5,13,296,28*4C
$GPGSV,10,2,36,6,48,216,33,7,44,162,39,9,71,69,42,16,13,56,34*7F
$GPGSV,10,3,36,23,40,70,26,26,9,31,28,29,7,341,38,30,17,187,32*46
$GLGSV,10,4,36,65,41,78,29,66,62,310,34,67,14,280,28,74,44,88,28*5B
$GLGSV,10,5,36,75,43,90,35,76,22,147,26,81,33,248,26,82,34,311,36*61
$GLGSV,10,6,36,83,6,352,,88,6,209,*53
$BDGSV,10,7,36,201,5,,,202,20,130,,203,5,,,204,5,,*5A
$BDGSV,10,8,36,205,32,180,,206,18,50,,207,5,,,208,73,205,*6A
$BDGSV,10,9,36,209,43,205,,210,5,,,211,6,25,,212,5,,*5F
$BDGSV,10,10,36,213,5,,,214,5,,*6A
$GPRMC,120231.00,A,5159.9897,N,00422.4045,E,0.000,0.000,241119,,E,A*10
$GPGGA,120232.00,5159.9897,N,00422.4045,E,1,15,0.674,12.408,M,,M,0,*7A
$GNGSA,A,3,2,3,5,6,7,9,16,23,26,29,30,65,74,75,81,,,,,,1.254,0.674,1.057*25
$GPGSA,A,3,2,3,5,6,7,9,16,23,26,29,30,,,,,,,,,,1.254,0.674,1.057*30
$GLGSA,A,3,65,74,75,81,,,,,,,,,,,,,,,,,1.254,0.674,1.057*21
$BDGSA,A,3,,,,,,,,,,,,,,,,,,,,,1.254,0.674,1.057*27
$QZGSA,A,3,,,,,,,,,,,,,,,,,,,,,1.254,0.674,1.057*2A
$GPGSV,10,1,36,2,44,283,39,3,9,117,27,4,62,67,36,5,13,296,28*41
$GPGSV,10,2,36,6,48,216,33,7,44,162,38,9,71,69,43,16,13,56,35*7E
$GPGSV,10,3,36,23,40,70,26,26,9,31,28,29,7,341,35,30,17,187,33*4A
$GLGSV,10,4,36,65,41,78,30,66,62,310,35,67,14,280,26,74,44,88,27*53
$GLGSV,10,5,36,75,43,90,35,76,22,147,25,81,33,248,23,82,34,311,33*62
$GLGSV,10,6,36,83,6,352,,88,6,209,*53
$BDGSV,10,7,36,201,5,,,202,20,130,,203,5,,,204,5,,*5A
$BDGSV,10,8,36,205,32,180,,206,18,50,,207,5,,,208,73,205,*6A
$BDGSV,10,9,36,209,43,205,,210,5,,,211,6,25,,212,5,,*5F
$BDGSV,10,10,36,213,5,,,214,5,,*6A
$GPRMC,120232.00,A,5159.9897,N,00422.4045,E,0.000,0.000,241119,,E,A*13
$GPGGA,120233.00,5159.9897,N,00422.4045,E,1,15,0.674,12.408,M,,M,0,*7B
$GNGSA,A,3,2,3,5,6,7,9,16,23,26,29,30,65,74,75,81,,,,,,1.254,0.674,1.057*25
$GPGSA,A,3,2,3,5,6,7,9,16,23,26,29,30,,,,,,,,,,1.254,0.674,1.057*30
$GLGSA,A,3,65,74,75,81,,,,,,,,,,,,,,,,,1.254,0.674,1.057*21
$BDGSA,A,3,,,,,,,,,,,,,,,,,,,,,1.254,0.674,1.057*27
$QZGSA,A,3,,,,,,,,,,,,,,,,,,,,,1.254,0.674,1.057*2A
$GPGSV,10,1,36,2,44,283,39,3,9,117,26,4,62,67,37,5,13,296,26*4F
$GPGSV,10,2,36,6,48,216,34,7,44,162,38,9,71,69,44,16,13,56,33*78
$GPGSV,10,3,36,23,40,70,28,26,9,31,28,29,7,341,33,30,17,187,34*45
$GLGSV,10,4,36,65,41,78,33,66,62,310,35,67,14,280,24,74,44,88,30*54
$GLGSV,10,5,36,75,43,90,35,76,22,147,27,81,33,247,20,82,34,311,29*67
$GLGSV,10,6,36,83,6,352,,88,6,209,*53
$BDGSV,10,7,36,201,5,,,202,20,130,,203,5,,,204,5,,*5A
$BDGSV,10,8,36,205,32,180,,206,18,50,,207,5,,,208,73,205,*6A
$BDGSV,10,9,36,209,43,205,,210,5,,,211,6,25,,212,5,,*5F
$BDGSV,10,10,36,213,5,,,214,5,,*6A
$GPRMC,120233.00,A,5159.9897,N,00422.4045,E,0.000,0.000,241119,,E,A*12
$GPGGA,120234.00,5159.9897,N,00422.4045,E,1,15,0.674,12.408,M,,M,0,*7C
$GNGSA,A,3,2,3,5,6,7,9,16,23,26,29,30,65,74,75,81,,,,,,1.254,0.674,1.057*25
$GPGSA,A,3,2,3,5,6,7,9,16,23,26,29,30,,,,,,,,,,1.254,0.674,1.057*30
$GLGSA,A,3,65,74,75,81,,,,,,,,,,,,,,,,,1.254,0.674,1.057*21
$BDGSA,A,3,,,,,,,,,,,,,,,,,,,,,1.254,0.674,1.057*27
$QZGSA,A,3,,,,,,,,,,,,,,,,,,,,,1.254,0.674,1.057*2A
$GPGSV,10,1,36,2,44,283,39,3,9,117,24,4,62,67,36,5,13,296,28*42
$GPGSV,10,2,36,6,48,216,33,7,44,162,37,9,71,69,43,16,13,56,33*77
$GPGSV,10,3,36,23,40,70,27,26,9,31,28,29,7,341,31,30,17,187,33*4F
$GLGSV,10,4,36,65,40,78,31,66,62,310,35,67,14,280,21,74,44,88,27*54
$GLGSV,10,5,36,75,43,90,34,76,22,147,27,81,33,247,20,82,34,311,27*68
$GLGSV,10,6,36,83,6,352,,88,6,209,*53
$BDGSV,10,7,36,201,5,,,202,20,130,,203,5,,,204,5,,*5A
$BDGSV,10,8,36,205,32,180,,206,18,50,,207,5,,,208,73,205,*6A
$BDGSV,10,9,36,209,43,205,,210,5,,,211,6,25,,212,5,,*5F
$BDGSV,10,10,36,213,5,,,214,5,,*6A
$GPRMC,120234.00,A,5159.9897,N,00422.4045,E,0.000,0.000,241119,,E,A*15
$GPGGA,120235.00,5159.9897,N,00422.4045,E,1,16,0.653,12.408,M,,M,0,*7B
$GNGSA,A,3,2,3,5,6,7,9,16,23,26,29,30,65,67,74,75,81,,,,,1.225,0.653,1.037*21
$GPGSA,A,3,2,3,5,6,7,9,16,23,26,29,30,,,,,,,,,,1.225,0.653,1.037*35
$GLGSA,A,3,65,67,74,75,81,,,,,,,,,,,,,,,,1.225,0.653,1.037*25
$BDGSA,A,3,,,,,,,,,,,,,,,,,,,,,1.225,0.653,1.037*22
$QZGSA,A,3,,,,,,,,,,,,,,,,,,,,,1.225,0.653,1.037*2F
$GPGSV,10,1,36,2,44,283,38,3,9,117,24,4,62,67,36,5,14,296,29*45
$GPGSV,10,2,36,6,48,216,34,7,44,162,38,9,71,69,43,16,13,56,32*7E
$GPGSV,10,3,36,23,40,70,26,26,9,31,29,29,7,341,32,30,17,187,33*4C
$GLGSV,10,4,36,65,40,78,31,66,62,310,35,67,14,280,18,74,44,88,27*5E
$GLGSV,10,5,36,75,43,90,34,76,22,147,26,81,33,247,24,82,34,311,33*68
$GLGSV,10,6,36,83,6,352,,88,6,209,*53
$BDGSV,10,7,36,201,5,,,202,20,130,,203,5,,,204,5,,*5A
$BDGSV,10,8,36,205,32,180,,206,18,50,,207,5,,,208,73,205,*6A
$BDGSV,10,9,36,209,43,205,,210,5,,,211,6,25,,212,5,,*5F
$BDGSV,10,10,36,213,5,,,214,5,,*6A
$GPRMC,120235.00,A,5159.9897,N,00422.4045,E,0.000,0.000,241119,,E,A*14
$GPGGA,120236.00,5159.9897,N,00422.4045,E,1,16,0.653,12.408,M,,M,0,*78
$GNGSA,A,3,2,3,5,6,7,9,16,23,26,29,30,65,67,74,75,81,,,,,1.225,0.653,1.037*21
$GPGSA,A,3,2,3,5,6,7,9,16,23,26,29,30,,,,,,,,,,1.225,0.653,1.037*35
$GLGSA,A,3,65,67,74,75,81,,,,,,,,,,,,,,,,1.225,0.653,1.037*25
$BDGSA,A,3,,,,,,,,,,,,,,,,,,,,,1.225,0.653,1.037*22
$QZGSA,A,3,,,,,,,,,,,,,,,,,,,,,1.225,0.653,1.037*2F
$GPGSV,10,1,36,2,44,283,38,3,9,117,23,4,62,67,36,5,14,296,29*42
$GPGSV,10,2,36,6,48,216,34,7,44,162,39,9,71,69,43,16,13,56,31*7C
$GPGSV,10,3,36,23,40,70,26,26,9,31,30,29,7,341,31,30,17,187,34*40
$GLGSV,10,4,36,65,40,78,32,66,62,310,34,67,14,280,20,74,44,88,27*57
$GLGSV,10,5,36,75,43,90,34,76,22,147,27,81,33,247,23,82,34,311,35*68
$GLGSV,10,6,36,83,6,352,,88,6,209,*53
$BDGSV,10,7,36,201,5,,,202,20,130,,203,5,,,204,5,,*5A
$BDGSV,10,8,36,205,32,180,,206,18,50,,207,5,,,208,73,205,*6A
$BDGSV,10,9,36,209,43,205,,210,5,,,211,6,25,,212,5,,*5F
$BDGSV,10,10,36,213,5,,,214,5,,*6A
$GPRMC,120236.00,A,5159.9897,N,00422.4045,E,0.000,0.000,241119,,E,A*17
$GPGGA,120237.00,5159.9897,N,00422.4045,E,1,14,0.767,12.408,M,,M,0,*7D
$GNGSA,A,3,2,6,7,9,16,23,26,29,30,65,67,74,75,81,,,,,,,1.459,0.767,1.241*2F
$GPGSA,A,3,2,6,7,9,16,23,26,29,30,,,,,,,,,,,,1.459,0.767,1.241*3B
$GLGSA,A,3,65,67,74,75,81,,,,,,,,,,,,,,,,1.459,0.767,1.241*2D
$BDGSA,A,3,,,,,,,,,,,,,,,,,,,,,1.459,0.767,1.241*2A
$QZGSA,A,3,,,,,,,,,,,,,,,,,,,,,1.459,0.767,1.241*27
$GPGSV,10,1,36,2,44,283,39,3,9,117,22,4,62,67,37,5,14,296,29*43
$GPGSV,10,2,36,6,48,216,35,7,44,162,38,9,71,69,43,16,13,56,31*7C
$GPGSV,10,3,36,23,40,70,24,26,9,31,30,29,7,341,29,30,17,187,34*4B
$GLGSV,10,4,36,65,40,78,32,66,62,310,36,67,14,280,18,74,44,88,24*5D
$GLGSV,10,5,36,75,43,90,32,76,22,147,24,81,33,247,20,82,34,311,36*6D
$GLGSV,10,6,36,83,6,352,,88,6,209,*53
$BDGSV,10,7,36,201,5,,,202,20,130,,203,5,,,204,5,,*5A
$BDGSV,10,8,36,205,32,180,,206,18,50,,207,5,,,208,73,205,*6A
$BDGSV,10,9,36,209,43,205,,210,5,,,211,6,25,,212,5,,*5F
$BDGSV,10,10,36,213,5,,,214,5,,*6A
$GPRMC,120237.00,A,5159.9897,N,00422.4045,E,0.000,0.000,241119,,E,A*16
$GPGGA,120238.00,5159.9897,N,00422.4045,E,1,14,0.767,12.408,M,,M,0,*72
$GNGSA,A,3,2,6,7,9,16,23,26,29,30,65,67,74,75,81,,,,,,,1.459,0.767,1.241*2F
$GPGSA,A,3,2,6,7,9,16,23,26,29,30,,,,,,,,,,,,1.459,0.767,1.241*3B
$GLGSA,A,3,65,67,74,75,81,,,,,,,,,,,,,,,,1.459,0.767,1.241*2D
$BDGSA,A,3,,,,,,,,,,,,,,,,,,,,,1.459,0.767,1.241*2A
$QZGSA,A,3,,,,,,,,,,,,,,,,,,,,,1.459,0.767,1.241*27
$GPGSV,10,1,36,2,44,283,40,3,9,117,22,4,62,67,37,5,14,296,29*4D
$GPGSV,10,2,36,6,48,216,34,7,44,162,37,9,71,69,43,16,13,56,31*72
$GPGSV,10,3,36,23,40,70,24,26,9,31,30,29,7,341,30,30,17,187,35*42
$GLGSV,10,4,36,65,40,78,32,66,62,310,35,67,14,280,19,74,44,88,25*5E
$GLGSV,10,5,36,75,43,90,33,76,22,147,23,81,33,247,22,82,34,311,37*68
$GLGSV,10,6,36,83,6,352,,88,6,209,*53
$BDGSV,10,7,36,201,5,,,202,20,130,,203,5,,,204,5,,*5A
$BDGSV,10,8,36,205,32,180,,206,18,50,,207,5,,,208,73,205,*6A
$BDGSV,10,9,36,209,43,205,,210,5,,,211,6,25,,212,5,,*5F
$BDGSV,10,10,36,213,5,,,214,5,,*6A
$GPRMC,120238.00,A,5159.9897,N,00422.4045,E,0.000,0.000,241119,,E,A*19
$GPGGA,120239.00,5159.9897,N,00422.4045,E,1,15,0.678,12.408,M,,M,0,*7D
$GNGSA,A,3,2,3,6,7,9,16,23,26,29,30,65,67,74,75,81,,,,,,1.249,0.678,1.049*1E
$GPGSA,A,3,2,3,6,7,9,16,23,26,29,30,,,,,,,,,,,1.249,0.678,1.049*0A
$GLGSA,A,3,65,67,74,75,81,,,,,,,,,,,,,,,,1.249,0.678,1.049*2F
$BDGSA,A,3,,,,,,,,,,,,,,,,,,,,,1.249,0.678,1.049*28
$QZGSA,A,3,,,,,,,,,,,,,,,,,,,,,1.249,0.678,1.049*25
$GPGSV,10,1,36,2,44,283,40,3,9,117,22,4,62,67,33,5,14,296,29*49
$GPGSV,10,2,36,6,48,216,33,7,44,162,38,9,71,69,37,16,13,56,31*79
$GPGSV,10,3,36,23,40,70,29,26,9,31,30,29,7,341,27,30,17,187,33*4F
$GLGSV,10,4,36,65,40,78,30,66,62,310,36,67,14,280,18,74,44,88,27*5C
$GLGSV,10,5,36,75,43,90,35,76,22,147,23,81,33,247,22,82,34,311,38*61
$GLGSV,10,6,36,83,6,352,,88,6,209,*53
$BDGSV,10,7,36,201,5,,,202,20,130,,203,5,,,204,5,,*5A
$BDGSV,10,8,36,205,32,180,,206,18,50,,207,5,,,208,73,205,*6A
$BDGSV,10,9,36,209,43,205,,210,5,,,211,6,25,,212,5,,*5F
$BDGSV,10,10,36,213,5,,,214,5,,*6A
$GPRMC,120239.00,A,5159.9897,N,00422.4045,E,0.000,0.000,241119,,E,A*18
$GPGGA,120240.00,5159.9897,N,00422.4045,E,1,14,0.767,12.408,M,,M,0,*7D
$GNGSA,A,3,2,6,7,9,16,23,26,29,30,65,67,74,75,81,,,,,,,1.459,0.767,1.242*2C
$GPGSA,A,3,2,6,7,9,16,23,26,29,30,,,,,,,,,,,,1.459,0.767,1.242*38
$GLGSA,A,3,65,67,74,75,81,,,,,,,,,,,,,,,,1.459,0.767,1.242*2E
$BDGSA,A,3,,,,,,,,,,,,,,,,,,,,,1.459,0.767,1.242*29
$QZGSA,A,3,,,,,,,,,,,,,,,,,,,,,1.459,0.767,1.242*24
$GPGSV,10,1,36,2,44,283,33,3,9,117,24,4,62,67,27,5,14,296,28*4F
$GPGSV,10,2,36,6,48,216,27,7,44,162,39,9,71,69,31,16,13,56,34*7E
$GPGSV,10,3,36,23,40,70,38,26,9,31,30,29,7,341,28,30,17,187,19*48
$GLGSV,10,4,36,65,40,78,27,66,62,310,37,67,14,280,17,74,44,88,33*51
$GLGSV,10,5,36,75,43,90,35,76,22,147,23,81,33,247,24,82,34,311,39*66
$GLGSV,10,6,36,83,6,352,,88,6,209,*53
$BDGSV,10,7,36,201,5,,,202,20,130,,203,5,,,204,5,,*5A
$BDGSV,10,8,36,205,32,180,,206,18,50,,207,5,,,208,73,205,*6A
$BDGSV,10,9,36,209,43,205,,210,5,,,211,6,25,,212,5,,*5F
$BDGSV,10,10,36,213,5,,,214,5,,*6A
$GPRMC,120240.00,A,5159.9897,N,00422.4045,E,0.000,0.000,241119,,E,A*16
$GPGGA,120241.00,5159.9897,N,00422.4045,E,1,14,0.767,12.408,M,,M,0,*7C
$GNGSA,A,3,2,6,7,9,16,23,26,29,30,65,67,74,75,81,,,,,,,1.460,0.767,1.242*26
$GPGSA,A,3,2,6,7,9,16,23,26,29,30,,,,,,,,,,,,1.460,0.767,1.242*32
$GLGSA,A,3,65,67,74,75,81,,,,,,,,,,,,,,,,1.460,0.767,1.242*24
$BDGSA,A,3,,,,,,,,,,,,,,,,,,,,,1.460,0.767,1.242*23
$QZGSA,A,3,,,,,,,,,,,,,,,,,,,,,1.460,0.767,1.242*2E
$GPGSV,10,1,36,2,44,283,34,3,9,117,26,4,62,67,21,5,14,296,26*42
$GPGSV,10,2,36,6,48,216,31,7,44,162,38,9,71,69,33,16,13,56,34*7A
$GPGSV,10,3,36,23,40,70,32,26,9,31,30,29,7,341,33,30,17,187,25*47
$GLGSV,10,4,36,65,40,78,23,66,62,310,35,67,14,280,23,74,44,88,28*5A
$GLGSV,10,5,36,75,43,90,34,76,22,147,23,81,33,247,17,82,34,311,41*68
$GLGSV,10,6,36,83,6,352,,88,6,209,*53
$BDGSV,10,7,36,201,5,,,202,20,130,,203,5,,,204,5,,*5A
$BDGSV,10,8,36,205,32,180,,206,18,50,,207,5,,,208,73,205,*6A
$BDGSV,10,9,36,209,43,205,,210,5,,,211,6,25,,212,5,,*5F
$BDGSV,10,10,36,213,5,,,214,5,,*6A
$GPRMC,120241.00,A,5159.9897,N,00422.4045,E,0.000,0.000,241119,,E,A*17
$GPGGA,120242.00,5159.9897,N,00422.4045,E,1,14,0.767,12.408,M,,M,0,*7F
$GNGSA,A,3,2,6,7,9,16,23,26,29,30,65,67,74,75,81,,,,,,,1.460,0.767,1.242*26
$GPGSA,A,3,2,6,7,9,16,23,26,29,30,,,,,,,,,,,,1.460,0.767,1.242*32
$GLGSA,A,3,65,67,74,75,81,,,,,,,,,,,,,,,,1.460,0.767,1.242*24
$BDGSA,A,3,,,,,,,,,,,,,,,,,,,,,1.460,0.767,1.242*23
$QZGSA,A,3,,,,,,,,,,,,,,,,,,,,,1.460,0.767,1.242*2E
$GPGSV,10,1,36,2,44,283,36,3,9,117,26,4,62,67,21,5,14,296,24*42
$GPGSV,10,2,36,6,48,216,32,7,44,162,38,9,71,69,36,16,13,56,34*7C
$GPGSV,10,3,36,23,40,70,29,26,9,31,30,29,7,341,33,30,17,187,24*4C
$GLGSV,10,4,36,65,40,78,27,66,62,310,34,67,14,280,27,74,44,88,30*52
$GLGSV,10,5,36,75,43,90,35,76,22,147,27,81,33,247,18,82,34,311,41*62
$GLGSV,10,6,36,83,6,352,,88,6,209,*53
$BDGSV,10,7,36,201,5,,,202,20,130,,203,5,,,204,5,,*5A
$BDGSV,10,8,36,205,32,180,,206,18,50,,207,5,,,208,73,205,*6A
$BDGSV,10,9,36,209,43,205,,210,5,,,211,6,25,,212,5,,*5F
$BDGSV,10,10,36,213,5,,,214,5,,*6A
$GPRMC,120242.00,A,5159.9897,N,00422.4045,E,0.000,0.000,241119,,E,A*14
$GPGGA,120243.00,5159.9897,N,00422.4045,E,1,15,0.740,12.408,M,,M,0,*7A
$GNGSA,A,3,2,5,6,7,9,16,23,26,29,30,65,67,74,75,81,,,,,,1.441,0.740,1.237*17
$GPGSA,A,3,2,5,6,7,9,16,23,26,29,30,,,,,,,,,,,1.441,0.740,1.237*03
$GLGSA,A,3,65,67,74,75,81,,,,,,,,,,,,,,,,1.441,0.740,1.237*20
$BDGSA,A,3,,,,,,,,,,,,,,,,,,,,,1.441,0.740,1.237*27
$QZGSA,A,3,,,,,,,,,,,,,,,,,,,,,1.441,0.740,1.237*2A
$GPGSV,10,1,36,2,44,283,34,3,9,117,24,4,62,67,25,5,14,296,25*47
$GPGSV,10,2,36,6,48,216,28,7,44,162,30,9,71,69,35,16,13,56,31*79
$GPGSV,10,3,36,23,40,70,29,26,9,31,25,29,7,341,34,30,17,187,25*4E
$GLGSV,10,4,36,65,40,78,28,66,62,310,31,67,14,280,27,74,44,88,32*5A
$GLGSV,10,5,36,75,43,90,36,76,22,147,27,81,33,247,20,82,34,311,39*65
$GLGSV,10,6,36,83,6,352,,88,6,209,*53
$BDGSV,10,7,36,201,5,,,202,20,130,,203,5,,,204,5,,*5A
$BDGSV,10,8,36,205,32,180,,206,18,50,,207,5,,,208,73,205,*6A
$BDGSV,10,9,36,209,43,205,,210,5,,,211,6,25,,212,5,,*5F
$BDGSV,10,10,36,213,5,,,214,5,,*6A
$GPRMC,120243.00,A,5159.9897,N,00422.4045,E,0.000,0.000,241119,,E,A*15
$GPGGA,120244.00,5159.9897,N,00422.4045,E,1,15,0.740,12.408,M,,M,0,*7D
$GNGSA,A,3,2,5,6,7,9,16,23,26,29,30,65,67,74,75,81,,,,,,1.442,0.740,1.237*14
$GPGSA,A,3,2,5,6,7,9,16,23,26,29,30,,,,,,,,,,,1.442,0.740,1.237*00
$GLGSA,A,3,65,67,74,75,81,,,,,,,,,,,,,,,,1.442,0.740,1.237*23
$BDGSA,A,3,,,,,,,,,,,,,,,,,,,,,1.442,0.740,1.237*24
$QZGSA,A,3,,,,,,,,,,,,,,,,,,,,,1.442,0.740,1.237*29
$GPGSV,10,1,36,2,44,283,36,3,9,117,25,4,62,67,29,5,14,296,25*48
$GPGSV,10,2,36,6,48,216,28,7,44,162,29,9,71,69,39,16,13,56,27*7A
$GPGSV,10,3,36,23,40,70,26,26,9,31,26,29,7,341,33,30,17,187,26*46
$GLGSV,10,4,36,65,40,78,29,66,62,310,30,67,14,280,26,74,44,88,26*5E
$GLGSV,10,5,36,75,43,90,36,76,22,147,25,81,33,247,20,82,34,311,38*66
$GLGSV,10,6,36,83,6,352,,88,6,209,*53
$BDGSV,10,7,36,201,5,,,202,20,130,,203,5,,,204,5,,*5A
$BDGSV,10,8,36,205,32,180,,206,18,50,,207,5,,,208,73,205,*6A
$BDGSV,10,9,36,209,43,205,,210,5,,,211,6,25,,212,5,,*5F
$BDGSV,10,10,36,213,5,,,214,5,,*6A
$GPRMC,120244.00,A,5159.9897,N,00422.4045,E,0.000,0.000,241119,,E,A*12
$GPGGA,120245.00,5159.9897,N,00422.4045,E,1,15,0.740,12.408,M,,M,0,*7C
$GNGSA,A,3,2,5,6,7,9,16,23,26,29,30,65,67,74,75,81,,,,,,1.442,0.740,1.237*14
$GPGSA,A,3,2,5,6,7,9,16,23,26,29,30,,,,,,,,,,,1.442,0.740,1.237*00
$GLGSA,A,3,65,67,74,75,81,,,,,,,,,,,,,,,,1.442,0.740,1.237*23
$BDGSA,A,3,,,,,,,,,,,,,,,,,,,,,1.442,0.740,1.237*24
$QZGSA,A,3,,,,,,,,,,,,,,,,,,,,,1.442,0.740,1.237*29
$GPGSV,10,1,36,2,44,283,38,3,9,117,26,4,62,67,32,5,14,296,27*4D
$GPGSV,10,2,36,6,48,216,32,7,45,162,36,9,71,69,40,16,13,56,30*76
$GPGSV,10,3,36,23,40,70,29,26,9,31,30,29,7,341,33,30,17,187,29*41
$GLGSV,10,4,36,65,40,78,30,66,62,310,34,67,14,280,24,74,44,88,28*5E
$GLGSV,10,5,36,75,43,90,36,76,22,147,26,81,33,247,18,82,34,311,37*61
$GLGSV,10,6,36,83,6,352,,88,6,209,*53
$BDGSV,10,7,36,201,5,,,202,20,130,,203,5,,,204,5,,*5A
$BDGSV,10,8,36,205,32,180,,206,18,50,,207,5,,,208,73,205,*6A
$BDGSV,10,9,36,209,43,205,,210,5,,,211,6,25,,212,5,,*5F
$BDGSV,10,10,36,213,5,,,214,5,,*6A
$GPRMC,120245.00,A,5159.9897,N,00422.4045,E,0.000,0.000,241119,,E,A*13
$GPGGA,120246.00,5159.9897,N,00422.4045,E,1,15,0.740,12.408,M,,M,0,*7F
$GNGSA,A,3,2,5,6,7,9,16,23,26,29,30,65,67,74,75,81,,,,,,1.442,0.740,1.238*1B
$GPGSA,A,3,2,5,6,7,9,16,23,26,29,30,,,,,,,,,,,1.442,0.740,1.238*0F
$GLGSA,A,3,65,67,74,75,81,,,,,,,,,,,,,,,,1.442,0.740,1.238*2C
$BDGSA,A,3,,,,,,,,,,,,,,,,,,,,,1.442,0.740,1.238*2B
$QZGSA,A,3,,,,,,,,,,,,,,,,,,,,,1.442,0.740,1.238*26
$GPGSV,10,1,36,2,44,283,29,3,9,117,26,4,62,67,30,5,14,296,22*4A
$GPGSV,10,2,36,6,48,216,30,7,45,162,35,9,71,69,33,16,13,56,30*73
$GPGSV,10,3,36,23,40,70,32,26,9,31,27,29,7,341,29,30,17,187,30*4E
$GLGSV,10,4,36,65,40,78,30,66,62,310,27,67,14,280,25,74,44,88,31*55
$GLGSV,10,5,36,75,43,90,31,76,22,147,31,81,33,247,28,82,34,311,28*6D
$GLGSV,10,6,36,83,6,352,,88,6,209,*53
$BDGSV,10,7,36,201,5,,,202,20,130,,203,5,,,204,5,,*5A
$BDGSV,10,8,36,205,32,180,,206,18,50,,207,5,,,208,73,205,*6A
$BDGSV,10,9,36,209,43,205,,210,5,,,211,6,25,,212,5,,*5F
$BDGSV,10,10,36,213,5,,,214,5,,*6A
$GPRMC,120246.00,A,5159.9897,N,00422.4045,E,0.000,0.000,241119,,E,A*10
$GPGGA,120247.00,5159.9897,N,00422.4045,E,1,15,0.740,12.408,M,,M,0,*7E
$GNGSA,A,3,2,5,6,7,9,16,23,26,29,30,65,67,74,75,81,,,,,,1.442,0.740,1.238*1B
$GPGSA,A,3,2,5,6,7,9,16,23,26,29,30,,,,,,,,,,,1.442,0.740,1.238*0F
$GLGSA,A,3,65,67,74,75,81,,,,,,,,,,,,,,,,1.442,0.740,1.238*2C
$BDGSA,A,3,,,,,,,,,,,,,,,,,,,,,1.442,0.740,1.238*2B
$QZGSA,A,3,,,,,,,,,,,,,,,,,,,,,1.442,0.740,1.238*26
$GPGSV,10,1,36,2,44,283,24,3,9,117,28,4,62,67,26,5,14,296,25*49
$GPGSV,10,2,36,6,48,216,21,7,45,162,29,9,71,69,33,16,13,56,24*7B
$GPGSV,10,3,36,23,40,70,33,26,9,31,20,29,7,341,22,30,17,187,26*44
$GLGSV,10,4,36,65,40,78,32,66,62,310,24,67,14,280,25,74,44,88,31*54
$GLGSV,10,5,36,75,43,90,37,76,22,147,34,81,33,247,24,82,34,311,29*63
$GLGSV,10,6,36,83,6,352,,88,6,209,*53
$BDGSV,10,7,36,201,5,,,202,20,130,,203,5,,,204,5,,*5A
$BDGSV,10,8,36,205,32,180,,206,18,50,,207,5,,,208,73,205,*6A
$BDGSV,10,9,36,209,43,205,,210,5,,,211,6,25,,212,5,,*5F
$BDGSV,10,10,36,213,5,,,214,5,,*6A
$GPRMC,120247.00,A,5159.9897,N,00422.4045,E,0.000,0.000,241119,,E,A*11
$GPGGA,120248.00,5159.9897,N,00422.4045,E,1,16,0.653,12.408,M,,M,0,*71
$GNGSA,A,3,2,3,5,6,7,9,16,23,26,29,30,65,67,74,75,81,,,,,1.226,0.653,1.038*2D
$GPGSA,A,3,2,3,5,6,7,9,16,23,26,29,30,,,,,,,,,,1.226,0.653,1.038*39
$GLGSA,A,3,65,67,74,75,81,,,,,,,,,,,,,,,,1.226,0.653,1.038*29
$BDGSA,A,3,,,,,,,,,,,,,,,,,,,,,1.226,0.653,1.038*2E
$QZGSA,A,3,,,,,,,,,,,,,,,,,,,,,1.226,0.653,1.038*23
$GPGSV,10,1,36,2,44,283,25,3,9,117,30,4,62,67,29,5,14,296,27*4C
$GPGSV,10,2,36,6,48,216,23,7,45,162,21,9,71,69,35,16,13,56,26*75
$GPGSV,10,3,36,23,40,70,38,26,9,31,23,29,7,341,25,30,17,187,32*4E
$GLGSV,10,4,36,65,40,78,35,66,62,310,24,67,14,280,26,74,44,88,38*59
$GLGSV,10,5,36,75,43,90,38,76,22,147,38,81,33,247,27,82,34,311,29*63
$GLGSV,10,6,36,83,6,352,,88,6,209,*53
$BDGSV,10,7,36,201,5,,,202,20,130,,203,5,,,204,5,,*5A
$BDGSV,10,8,36,205,32,180,,206,18,50,,207,5,,,208,73,205,*6A
$BDGSV,10,9,36,209,43,205,,210,5,,,211,6,25,,212,5,,*5F
$BDGSV,10,10,36,213,5,,,214,5,,*6A
$GPRMC,120248.00,A,5159.9897,N,00422.4045,E,0.000,0.000,241119,,E,A*1E
$GPGGA,120249.00,5159.9897,N,00422.4045,E,1,16,0.653,12.408,M,,M,0,*70
$GNGSA,A,3,2,3,5,6,7,9,16,23,26,29,30,65,67,74,75,81,,,,,1.226,0.653,1.038*2D
$GPGSA,A,3,2,3,5,6,7,9,16,23,26,29,30,,,,,,,,,,1.226,0.653,1.038*39
$GLGSA,A,3,65,67,74,75,81,,,,,,,,,,,,,,,,1.226,0.653,1.038*29
$BDGSA,A,3,,,,,,,,,,,,,,,,,,,,,1.226,0.653,1.038*2E
$QZGSA,A,3,,,,,,,,,,,,,,,,,,,,,1.226,0.653,1.038*23
$GPGSV,10,1,36,2,44,283,25,3,8,117,30,4,62,67,29,5,14,296,27*4D
$GPGSV,10,2,36,6,48,216,24,7,45,162,20,9,71,69,35,16,13,56,28*7D
$GPGSV,10,3,36,23,40,70,39,26,9,31,24,29,7,341,23,30,17,187,32*4E
$GLGSV,10,4,36,65,40,78,35,66,62,310,25,67,14,280,28,74,44,88,38*56
$GLGSV,10,5,36,75,43,90,38,76,22,147,38,81,33,247,28,82,34,311,29*6C
$GLGSV,10,6,36,83,6,352,,88,6,209,*53
$BDGSV,10,7,36,201,5,,,202,20,130,,203,5,,,204,5,,*5A
$BDGSV,10,8,36,205,32,180,,206,18,50,,207,5,,,208,73,205,*6A
$BDGSV,10,9,36,209,43,205,,210,5,,,211,6,25,,212,5,,*5F
$BDGSV,10,10,36,213,5,,,214,5,,*6A
$GPRMC,120249.00,A,5159.9897,N,00422.4045,E,0.000,0.000,241119,,E,A*1F
$GPGGA,120250.00,5159.9897,N,00422.4045,E,1,16,0.653,12.408,M,,M,0,*78
$GNGSA,A,3,2,3,5,6,7,9,16,23,26,29,30,65,67,74,75,81,,,,,1.226,0.653,1.038*2D
$GPGSA,A,3,2,3,5,6,7,9,16,23,26,29,30,,,,,,,,,,1.226,0.653,1.038*39
$GLGSA,A,3,65,67,74,75,81,,,,,,,,,,,,,,,,1.226,0.653,1.038*29
$BDGSA,A,3,,,,,,,,,,,,,,,,,,,,,1.226,0.653,1.038*2E
$QZGSA,A,3,,,,,,,,,,,,,,,,,,,,,1.226,0.653,1.038*23
$GPGSV,10,1,36,2,44,283,24,3,8,117,30,4,62,67,29,5,14,296,27*4C
$GPGSV,10,2,36,6,48,216,23,7,45,162,19,9,71,69,35,16,13,56,31*78
$GPGSV,10,3,36,23,40,70,39,26,9,31,25,29,7,341,21,30,17,187,32*4D
$GLGSV,10,4,36,65,40,78,35,66,62,310,26,67,14,280,29,74,44,88,37*5B
$GLGSV,10,5,36,75,43,90,38,76,22,147,39,81,33,247,28,82,34,311,29*6D
$GLGSV,10,6,36,83,6,352,,88,6,209,*53
$BDGSV,10,7,36,201,5,,,202,20,130,,203,5,,,204,5,,*5A
$BDGSV,10,8,36,205,32,180,,206,18,50,,207,5,,,208,73,205,*6A
$BDGSV,10,9,36,209,43,205,,210,5,,,211,6,25,,212,5,,*5F
$BDGSV,10,10,36,213,5,,,214,5,,*6A
$GPRMC,120250.00,A,5159.9897,N,00422.4045,E,0.000,0.000,241119,,E,A*17
$GPGGA,120251.00,5159.9897,N,00422.4045,E,1,16,0.653,12.408,M,,M,0,*79
$GNGSA,A,3,2,3,5,6,7,9,16,23,26,29,30,65,67,74,75,81,,,,,1.226,0.653,1.038*2D
$GPGSA,A,3,2,3,5,6,7,9,16,23,26,29,30,,,,,,,,,,1.226,0.653,1.038*39
$GLGSA,A,3,65,67,74,75,81,,,,,,,,,,,,,,,,1.226,0.653,1.038*29
$BDGSA,A,3,,,,,,,,,,,,,,,,,,,,,1.226,0.653,1.038*2E
$QZGSA,A,3,,,,,,,,,,,,,,,,,,,,,1.226,0.653,1.038*23
$GPGSV,10,1,36,2,44,283,24,3,8,117,28,4,62,67,28,5,14,296,25*46
$GPGSV,10,2,36,6,48,216,23,7,45,162,18,9,71,69,35,16,13,56,31*79
$GPGSV,10,3,36,23,40,70,38,26,9,31,24,29,7,341,20,30,17,187,32*4C
$GLGSV,10,4,36,65,40,78,35,66,62,310,26,67,14,280,30,74,44,88,36*52
$GLGSV,10,5,36,75,43,90,38,76,22,147,39,81,33,247,28,82,34,311,26*62
$GLGSV,10,6,36,83,6,352,,88,6,209,*53
$BDGSV,10,7,36,201,5,,,202,20,130,,203,5,,,204,5,,*5A
$BDGSV,10,8,36,205,32,180,,206,18,50,,207,5,,,208,73,205,*6A
$BDGSV,10,9,36,209,43,205,,210,5,,,211,6,25,,212,5,,*5F
$BDGSV,10,10,36,213,5,,,214,5,,*6A
$GPRMC,120251.00,A,5159.9897,N,00422.4045,E,0.000,0.000,241119,,E,A*16
$GPGGA,120252.00,5159.9897,N,00422.4045,E,1,16,0.653,12.408,M,,M,0,*7A
$GNGSA,A,3,2,3,5,6,7,9,16,23,26,29,30,65,67,74,75,81,,,,,1.227,0.653,1.038*2C
$GPGSA,A,3,2,3,5,6,7,9,16,23,26,29,30,,,,,,,,,,1.227,0.653,1.038*38
$GLGSA,A,3,65,67,74,75,81,,,,,,,,,,,,,,,,1.227,0.653,1.038*28
$BDGSA,A,3,,,,,,,,,,,,,,,,,,,,,1.227,0.653,1.038*2F
$QZGSA,A,3,,,,,,,,,,,,,,,,,,,,,1.227,0.653,1.038*22
$GPGSV,10,1,36,2,44,283,24,3,8,117,28,4,62,67,29,5,14,296,26*44
$GPGSV,10,2,36,6,48,216,23,7,45,162,23,9,71,69,36,16,13,56,33*70
$GPGSV,10,3,36,23,40,70,39,26,9,31,24,29,7,341,20,30,17,187,33*4C
$GLGSV,10,4,36,65,40,78,35,66,62,310,27,67,14,280,30,74,44,88,36*53
$GLGSV,10,5,36,75,43,90,39,76,22,147,39,81,33,247,27,82,34,311,25*6F
$GLGSV,10,6,36,83,6,352,,88,6,209,*53
$BDGSV,10,7,36,201,5,,,202,20,130,,203,5,,,204,5,,*5A
$BDGSV,10,8,36,205,32,180,,206,18,50,,207,5,,,208,73,205,*6A
$BDGSV,10,9,36,209,43,205,,210,5,,,211,6,25,,212,5,,*5F
$BDGSV,10,10,36,213,5,,,214,5,,*6A
$GPRMC,120252.00,A,5159.9897,N,00422.4045,E,0.000,0.000,241119,,E,A*15
$GPGGA,120253.00,5159.9897,N,00422.4045,E,1,16,0.653,12.408,M,,M,0,*7B
$GNGSA,A,3,2,3,5,6,7,9,16,23,26,29,30,65,67,74,75,81,,,,,1.227,0.653,1.039*2D
$GPGSA,A,3,2,3,5,6,7,9,16,23,26,29,30,,,,,,,,,,1.227,0.653,1.039*39
$GLGSA,A,3,65,67,74,75,81,,,,,,,,,,,,,,,,1.227,0.653,1.039*29
$BDGSA,A,3,,,,,,,,,,,,,,,,,,,,,1.227,0.653,1.039*2E
$QZGSA,A,3,,,,,,,,,,,,,,,,,,,,,1.227,0.653,1.039*23
$GPGSV,10,1,36,2,44,283,24,3,8,117,29,4,62,67,28,5,14,296,27*45
$GPGSV,10,2,36,6,48,216,23,7,45,162,23,9,71,69,35,16,13,56,35*75
$GPGSV,10,3,36,23,40,70,39,26,9,31,24,29,7,341,18,30,17,187,32*46
$GLGSV,10,4,36,65,40,78,35,66,62,310,28,67,14,280,32,74,44,88,37*5F
$GLGSV,10,5,36,75,43,90,38,76,22,147,39,81,33,247,26,82,34,310,24*6F
$GLGSV,10,6,36,83,6,352,,88,6,209,*53
$BDGSV,10,7,36,201,5,,,202,20,130,,203,5,,,204,5,,*5A
$BDGSV,10,8,36,205,32,180,,206,18,50,,207,5,,,208,73,205,*6A
$BDGSV,10,9,36,209,43,205,,210,5,,,211,6,25,,212,5,,*5F
$BDGSV,10,10,36,213,5,,,214,5,,*6A
$GPRMC,120253.00,A,5159.9897,N,00422.4045,E,0.000,0.000,241119,,E,A*14
$GPGGA,120254.00,5159.9897,N,00422.4045,E,1,16,0.653,12.408,M,,M,0,*7C
$GNGSA,A,3,2,3,5,6,7,9,16,23,26,29,30,65,67,74,75,81,,,,,1.227,0.653,1.039*2D
$GPGSA,A,3,2,3,5,6,7,9,16,23,26,29,30,,,,,,,,,,1.227,0.653,1.039*39
$GLGSA,A,3,65,67,74,75,81,,,,,,,,,,,,,,,,1.227,0.653,1.039*29
$BDGSA,A,3,,,,,,,,,,,,,,,,,,,,,1.227,0.653,1.039*2E
$QZGSA,A,3,,,,,,,,,,,,,,,,,,,,,1.227,0.653,1.039*23
$GPGSV,10,1,36,2,44,283,23,3,8,117,29,4,62,67,29,5,14,296,27*43
$GPGSV,10,2,36,6,48,216,23,7,45,162,23,9,71,69,35,16,13,56,35*75
$GPGSV,10,3,36,23,40,70,39,26,9,31,24,29,7,341,19,30,17,187,32*47
$GLGSV,10,4,36,65,40,78,35,66,62,310,27,67,14,280,33,74,44,88,36*50
$GLGSV,10,5,36,75,43,90,39,76,22,147,39,81,33,247,26,82,34,310,24*6E
$GLGSV,10,6,36,83,6,352,,88,6,209,*53
$BDGSV,10,7,36,201,5,,,202,20,130,,203,5,,,204,5,,*5A
$BDGSV,10,8,36,205,32,180,,206,18,50,,207,5,,,208,73,205,*6A
$BDGSV,10,9,36,209,43,205,,210,5,,,211,6,25,,212,5,,*5F
$BDGSV,10,10,36,213,5,,,214,5,,*6A
$GPRMC,120254.00,A,5159.9897,N,00422.4045,E,0.000,0.000,241119,,E,A*13
$GPGGA,120255.00,5159.9897,N,00422.4045,E,1,16,0.653,12.408,M,,M,0,*7D
$GNGSA,A,3,2,3,5,6,7,9,16,23,26,29,30,65,67,74,75,81,,,,,1.227,0.653,1.039*2D
$GPGSA,A,3,2,3,5,6,7,9,16,23,26,29,30,,,,,,,,,,1.227,0.653,1.039*39
$GLGSA,A,3,65,67,74,75,81,,,,,,,,,,,,,,,,1.227,0.653,1.039*29
$BDGSA,A,3,,,,,,,,,,,,,,,,,,,,,1.227,0.653,1.039*2E
$QZGSA,A,3,,,,,,,,,,,,,,,,,,,,,1.227,0.653,1.039*23
$GPGSV,10,1,36,2,44,283,22,3,8,117,29,4,62,67,28,5,14,296,27*43
$GPGSV,10,2,36,6,48,216,23,7,45,162,26,9,71,69,36,16,13,56,36*70
$GPGSV,10,3,36,23,40,70,39,26,9,31,23,29,7,341,18,30,17,187,33*40
$GLGSV,10,4,36,65,40,78,35,66,62,310,27,67,14,280,32,74,44,88,36*51
$GLGSV,10,5,36,75,43,90,39,76,22,147,40,81,33,247,27,82,34,310,25*60
$GLGSV,10,6,36,83,6,352,,88,6,209,*53
$BDGSV,10,7,36,201,5,,,202,20,130,,203,5,,,204,5,,*5A
$BDGSV,10,8,36,205,32,180,,206,18,50,,207,5,,,208,73,205,*6A
$BDGSV,10,9,36,209,43,205,,210,5,,,211,6,25,,212,5,,*5F
$BDGSV,10,10,36,213,5,,,214,5,,*6A
$GPRMC,120255.00,A,5159.9897,N,00422.4045,E,0.000,0.000,241119,,E,A*12
$GPGGA,120256.00,5159.9897,N,00422.4045,E,1,16,0.653,12.408,M,,M,0,*7E
$GNGSA,A,3,2,3,5,6,7,9,16,23,26,29,30,65,67,74,75,81,,,,,1.227,0.653,1.039*2D
$GPGSA,A,3,2,3,5,6,7,9,16,23,26,29,30,,,,,,,,,,1.227,0.653,1.039*39
$GLGSA,A,3,65,67,74,75,81,,,,,,,,,,,,,,,,1.227,0.653,1.039*29
$BDGSA,A,3,,,,,,,,,,,,,,,,,,,,,1.227,0.653,1.039*2E
$QZGSA,A,3,,,,,,,,,,,,,,,,,,,,,1.227,0.653,1.039*23
$GPGSV,10,1,36,2,44,283,23,3,8,117,29,4,62,67,28,5,14,296,27*42
$GPGSV,10,2,36,6,48,216,23,7,45,162,27,9,71,69,36,16,13,56,36*71
$GPGSV,10,3,36,23,40,70,38,26,9,31,23,29,7,341,18,30,17,187,33*41
$GLGSV,10,4,36,65,40,78,35,66,62,310,26,67,14,280,32,74,44,88,36*50
$GLGSV,10,5,36,75,43,90,39,76,22,147,40,81,33,247,27,82,34,310,27*62
$GLGSV,10,6,36,83,6,352,,88,6,209,*53
$BDGSV,10,7,36,201,5,,,202,20,130,,203,5,,,204,5,,*5A
$BDGSV,10,8,36,205,32,180,,206,18,50,,207,5,,,208,73,205,*6A
$BDGSV,10,9,36,209,43,205,,210,5,,,211,6,25,,212,5,,*5F
$BDGSV,10,10,36,213,5,,,214,5,,*6A
$GPRMC,120256.00,A,5159.9897,N,00422.4045,E,0.000,0.000,241119,,E,A*11
$GPGGA,120257.00,5159.9897,N,00422.4045,E,1,16,0.653,12.408,M,,M,0,*7F
$GNGSA,A,3,2,3,5,6,7,9,16,23,26,29,30,65,67,74,75,81,,,,,1.227,0.653,1.039*2D
$GPGSA,A,3,2,3,5,6,7,9,16,23,26,29,30,,,,,,,,,,1.227,0.653,1.039*39
$GLGSA,A,3,65,67,74,75,81,,,,,,,,,,,,,,,,1.227,0.653,1.039*29
$BDGSA,A,3,,,,,,,,,,,,,,,,,,,,,1.227,0.653,1.039*2E
$QZGSA,A,3,,,,,,,,,,,,,,,,,,,,,1.227,0.653,1.039*23
$GPGSV,10,1,36,2,44,283,23,3,8,117,28,4,62,67,28,5,14,296,26*42
$GPGSV,10,2,36,6,48,216,23,7,45,162,26,9,71,69,36,16,13,56,36*70
$GPGSV,10,3,36,23,40,70,39,26,9,31,21,29,7,341,22,30,17,187,33*4B
$GLGSV,10,4,36,65,40,78,35,66,62,310,28,67,14,280,30,74,44,88,36*5C
$GLGSV,10,5,36,75,43,90,39,76,22,147,40,81,33,247,27,82,34,310,27*62
$GLGSV,10,6,36,83,6,352,,88,6,209,*53
$BDGSV,10,7,36,201,5,,,202,20,130,,203,5,,,204,5,,*5A
$BDGSV,10,8,36,205,32,180,,206,18,50,,207,5,,,208,73,205,*6A
$BDGSV,10,9,36,209,43,205,,210,5,,,211,6,25,,212,5,,*5F
$BDGSV,10,10,36,213,5,,,214,5,,*6A
$GPRMC,120257.00,A,5159.9897,N,00422.4045,E,0.000,0.000,241119,,E,A*10
$GPGGA,120258.00,5159.9897,N,00422.4045,E,1,16,0.653,12.408,M,,M,0,*70
$GNGSA,A,3,2,3,5,6,7,9,16,23,26,29,30,65,67,74,75,81,,,,,1.227,0.653,1.039*2D
$GPGSA,A,3,2,3,5,6,7,9,16,23,26,29,30,,,,,,,,,,1.227,0.653,1.039*39
$GLGSA,A,3,65,67,74,75,81,,,,,,,,,,,,,,,,1.227,0.653,1.039*29
$BDGSA,A,3,,,,,,,,,,,,,,,,,,,,,1.227,0.653,1.039*2E
$QZGSA,A,3,,,,,,,,,,,,,,,,,,,,,1.227,0.653,1.039*23
$GPGSV,10,1,36,2,44,283,25,3,8,117,27,4,62,67,28,5,14,296,26*4B
$GPGSV,10,2,36,6,48,216,21,7,45,162,25,9,71,69,36,16,13,56,36*71
$GPGSV,10,3,36,23,40,70,39,26,9,31,21,29,7,341,22,30,17,187,33*4B
$GLGSV,10,4,36,65,40,78,35,66,62,310,27,67,14,280,30,74,44,88,36*53
$GLGSV,10,5,36,75,43,90,39,76,22,147,40,81,33,247,27,82,34,310,28*6D
$GLGSV,10,6,36,83,6,352,,88,6,209,*53
$BDGSV,10,7,36,201,5,,,202,20,130,,203,5,,,204,5,,*5A
$BDGSV,10,8,36,205,32,180,,206,18,50,,207,5,,,208,73,205,*6A
$BDGSV,10,9,36,209,43,205,,210,5,,,211,6,25,,212,5,,*5F
$BDGSV,10,10,36,213,5,,,214,5,,*6A
$GPRMC,120258.00,A,5159.9897,N,00422.4045,E,0.000,0.000,241119,,E,A*1F
$GPGGA,120259.00,5159.9897,N,00422.4045,E,1,16,0.653,12.408,M,,M,0,*71
$GNGSA,A,3,2,3,5,6,7,9,16,23,26,29,30,65,67,74,75,81,,,,,1.227,0.653,1.039*2D
$GPGSA,A,3,2,3,5,6,7,9,16,23,26,29,30,,,,,,,,,,1.227,0.653,1.039*39
$GLGSA,A,3,65,67,74,75,81,,,,,,,,,,,,,,,,1.227,0.653,1.039*29
$BDGSA,A,3,,,,,,,,,,,,,,,,,,,,,1.227,0.653,1.039*2E
$QZGSA,A,3,,,,,,,,,,,,,,,,,,,,,1.227,0.653,1.039*23
$GPGSV,10,1,36,2,44,283,26,3,8,117,27,4,62,67,28,5,14,296,27*49
$GPGSV,10,2,36,6,48,216,21,7,45,162,24,9,71,69,36,16,13,56,36*70
$GPGSV,10,3,36,23,40,70,38,26,9,31,19,29,7,341,23,30,17,187,32*41
$GLGSV,10,4,36,65,40,78,35,66,62,310,27,67,14,280,27,74,44,88,36*55
$GLGSV,10,5,36,75,43,89,39,76,22,147,40,81,33,247,27,82,34,310,28*65
$GLGSV,10,6,36,83,6,352,,88,6,209,*53
$BDGSV,10,7,36,201,5,,,202,20,130,,203,5,,,204,5,,*5A
$BDGSV,10,8,36,205,32,180,,206,18,50,,207,5,,,208,73,205,*6A
$BDGSV,10,9,36,209,43,205,,210,5,,,211,6,25,,212,5,,*5F
$BDGSV,10,10,36,213,5,,,214,5,,*6A
$GPRMC,120259.00,A,5159.9897,N,00422.4045,E,0.000,0.000,241119,,E,A*1E
$GPGGA,120300.00,5159.9897,N,00422.4045,E,1,16,0.653,12.408,M,,M,0,*7C
$GNGSA,A,3,2,3,5,6,7,9,16,23,26,29,30,65,67,74,75,81,,,,,1.227,0.653,1.039*2D
$GPGSA,A,3,2,3,5,6,7,9,16,23,26,29,30,,,,,,,,,,1.227,0.653,1.039*39
$GLGSA,A,3,65,67,74,75,81,,,,,,,,,,,,,,,,1.227,0.653,1.039*29
$BDGSA,A,3,,,,,,,,,,,,,,,,,,,,,1.227,0.653,1.039*2E
$QZGSA,A,3,,,,,,,,,,,,,,,,,,,,,1.227,0.653,1.039*23
$GPGSV,10,1,36,2,44,283,27,3,8,117,27,4,62,67,28,5,14,296,27*48
$GPGSV,10,2,36,6,48,216,22,7,45,162,23,9,70,69,36,16,13,56,35*76
$GPGSV,10,3,36,23,40,70,38,26,9,31,19,29,7,341,23,30,17,187,32*41
$GLGSV,10,4,36,65,40,78,35,66,62,310,28,67,14,280,25,74,44,88,36*58
$GLGSV,10,5,36,75,43,89,39,76,22,147,40,81,33,247,27,82,34,310,30*6C
$GLGSV,10,6,36,83,6,352,,88,6,209,*53
$BDGSV,10,7,36,201,5,,,202,20,130,,203,5,,,204,5,,*5A
$BDGSV,10,8,36,205,32,180,,206,18,50,,207,5,,,208,73,205,*6A
$BDGSV,10,9,36,209,43,205,,210,5,,,211,6,25,,212,5,,*5F
$BDGSV,10,10,36,213,5,,,214,5,,*6A
$GPRMC,120300.00,A,5159.9897,N,00422.4045,E,0.000,0.000,241119,,E,A*13
$GPGGA,120301.00,5159.9897,N,00422.4045,E,1,16,0.653,12.408,M,,M,0,*7D
$GNGSA,A,3,2,3,5,6,7,9,16,23,26,29,30,65,67,74,75,81,,,,,1.227,0.653,1.039*2D
$GPGSA,A,3,2,3,5,6,7,9,16,23,26,29,30,,,,,,,,,,1.227,0.653,1.039*39
$GLGSA,A,3,65,67,74,75,81,,,,,,,,,,,,,,,,1.227,0.653,1.039*29
$BDGSA,A,3,,,,,,,,,,,,,,,,,,,,,1.227,0.653,1.039*2E
$QZGSA,A,3,,,,,,,,,,,,,,,,,,,,,1.227,0.653,1.039*23
$GPGSV,10,1,36,2,44,283,28,3,8,117,28,4,62,67,27,5,14,296,27*47
$GPGSV,10,2,36,6,48,216,23,7,45,162,22,9,70,69,36,16,13,56,33*70
$GPGSV,10,3,36,23,40,70,39,26,9,31,18,29,7,341,24,30,17,187,32*46
$GLGSV,10,4,36,65,40,78,35,66,62,310,29,67,14,280,25,74,44,88,36*59
$GLGSV,10,5,36,75,43,89,40,76,22,147,41,81,33,247,29,82,34,310,31*6C
$GLGSV,10,6,36,83,6,352,,88,6,209,*53
$BDGSV,10,7,36,201,5,,,202,20,130,,203,5,,,204,5,,*5A
$BDGSV,10,8,36,205,32,180,,206,18,50,,207,5,,,208,73,205,*6A
$BDGSV,10,9,36,209,43,205,,210,5,,,211,6,25,,212,5,,*5F
$BDGSV,10,10,36,213,5,,,214,5,,*6A
$GPRMC,120301.00,A,5159.9897,N,00422.4045,E,0.000,0.000,241119,,E,A*12
$GPGGA,120302.00,5159.9897,N,00422.4045,E,1,16,0.653,12.408,M,,M,0,*7E
$GNGSA,A,3,2,3,5,6,7,9,16,23,26,29,30,65,67,74,75,81,,,,,1.227,0.653,1.039*2D
$GPGSA,A,3,2,3,5,6,7,9,16,23,26,29,30,,,,,,,,,,1.227,0.653,1.039*39
$GLGSA,A,3,65,67,74,75,81,,,,,,,,,,,,,,,,1.227,0.653,1.039*29
$BDGSA,A,3,,,,,,,,,,,,,,,,,,,,,1.227,0.653,1.039*2E
$QZGSA,A,3,,,,,,,,,,,,,,,,,,,,,1.227,0.653,1.039*23
$GPGSV,10,1,36,2,44,283,28,3,8,117,29,4,62,67,28,5,14,296,26*48
$GPGSV,10,2,36,6,48,216,23,7,45,162,19,9,70,69,36,16,13,56,33*78
$GPGSV,10,3,36,23,40,70,39,26,9,31,20,29,7,341,25,30,17,187,33*4D
$GLGSV,10,4,36,65,40,78,35,66,62,310,29,67,14,280,21,74,44,88,37*5C
$GLGSV,10,5,36,75,43,89,40,76,22,147,41,81,33,247,28,82,34,310,30*6C
$GLGSV,10,6,36,83,6,352,,88,6,209,*53
$BDGSV,10,7,36,201,5,,,202,20,130,,203,5,,,204,5,,*5A
$BDGSV,10,8,36,205,32,180,,206,18,50,,207,5,,,208,73,205,*6A
$BDGSV,10,9,36,209,43,205,,210,5,,,211,6,25,,212,5,,*5F
$BDGSV,10,10,36,213,5,,,214,5,,*6A
$GPRMC,120302.00,A,5159.9897,N,00422.4045,E,0.000,0.000,241119,,E,A*11
$GPGGA,120303.00,5159.9897,N,00422.4045,E,1,16,0.653,12.408,M,,M,0,*7F
$GNGSA,A,3,2,3,5,6,7,9,16,23,26,29,30,65,67,74,75,81,,,,,1.227,0.653,1.039*2D
$GPGSA,A,3,2,3,5,6,7,9,16,23,26,29,30,,,,,,,,,,1.227,0.653,1.039*39
$GLGSA,A,3,65,67,74,75,81,,,,,,,,,,,,,,,,1.227,0.653,1.039*29
$BDGSA,A,3,,,,,,,,,,,,,,,,,,,,,1.227,0.653,1.039*2E
$QZGSA,A,3,,,,,,,,,,,,,,,,,,,,,1.227,0.653,1.039*23
$GPGSV,10,1,36,2,44,283,28,3,8,117,27,4,62,67,28,5,14,296,25*45
$GPGSV,10,2,36,6,48,216,24,7,45,162,19,9,70,69,36,16,13,56,29*74
$GPGSV,10,3,36,23,40,70,39,26,9,31,22,29,7,341,25,30,17,187,32*4E
$GLGSV,10,4,36,65,40,78,35,66,62,310,28,67,14,280,23,74,44,88,37*5F
$GLGSV,10,5,36,75,43,89,40,76,22,147,41,81,33,247,27,82,34,310,29*6B
$GLGSV,10,6,36,83,6,352,,88,6,209,*53
$BDGSV,10,7,36,201,5,,,202,20,130,,203,5,,,204,5,,*5A
$BDGSV,10,8,36,205,32,180,,206,18,50,,207,5,,,208,73,205,*6A
$BDGSV,10,9,36,209,43,205,,210,5,,,211,6,25,,212,5,,*5F
$BDGSV,10,10,36,213,5,,,214,5,,*6A
$GPRMC,120303.00,A,5159.9897,N,00422.4045,E,0.000,0.000,241119,,E,A*10
$GPGGA,120304.00,5159.9897,N,00422.4045,E,1,16,0.653,12.408,M,,M,0,*78
$GNGSA,A,3,2,3,5,6,7,9,16,23,26,29,30,65,67,74,75,81,,,,,1.227,0.653,1.040*23
$GPGSA,A,3,2,3,5,6,7,9,16,23,26,29,30,,,,,,,,,,1.227,0.653,1.040*37
$GLGSA,A,3,65,67,74,75,81,,,,,,,,,,,,,,,,1.227,0.653,1.040*27
$BDGSA,A,3,,,,,,,,,,,,,,,,,,,,,1.227,0.653,1.040*20
$QZGSA,A,3,,,,,,,,,,,,,,,,,,,,,1.227,0.653,1.040*2D
$GPGSV,10,1,36,2,44,283,29,3,8,117,30,4,62,67,28,5,14,296,25*42
$GPGSV,10,2,36,6,48,216,23,7,45,162,18,9,70,69,37,16,13,56,27*7D
$GPGSV,10,3,36,23,40,70,39,26,9,31,22,29,7,341,26,30,17,187,33*4C
$GLGSV,10,4,36,65,40,78,35,66,62,310,27,67,14,280,25,74,44,88,38*59
$GLGSV,10,5,36,75,43,89,40,76,22,147,40,81,33,247,27,82,34,310,28*6B
$GLGSV,10,6,36,83,6,352,,88,6,209,*53
$BDGSV,10,7,36,201,5,,,202,20,130,,203,5,,,204,5,,*5A
$BDGSV,10,8,36,205,32,180,,206,18,50,,207,5,,,208,73,205,*6A
$BDGSV,10,9,36,209,43,205,,210,5,,,211,6,25,,212,5,,*5F
$BDGSV,10,10,36,213,5,,,214,5,,*6A
$GPRMC,120304.00,A,5159.9897,N,00422.4045,E,0.000,0.000,241119,,E,A*17
$GPGGA,120305.00,5159.9897,N,00422.4045,E,1,16,0.653,12.408,M,,M,0,*79
$GNGSA,A,3,2,3,5,6,7,9,16,23,26,29,30,65,67,74,75,81,,,,,1.228,0.653,1.040*2C
$GPGSA,A,3,2,3,5,6,7,9,16,23,26,29,30,,,,,,,,,,1.228,0.653,1.040*38
$GLGSA,A,3,65,67,74,75,81,,,,,,,,,,,,,,,,1.228,0.653,1.040*28
$BDGSA,A,3,,,,,,,,,,,,,,,,,,,,,1.228,0.653,1.040*2F
$QZGSA,A,3,,,,,,,,,,,,,,,,,,,,,1.228,0.653,1.040*22
$GPGSV,10,1,36,2,44,283,28,3,8,117,30,4,62,67,28,5,14,296,24*42
$GPGSV,10,2,36,6,48,216,23,7,45,162,19,9,70,69,37,16,13,56,24*7F
$GPGSV,10,3,36,23,40,70,39,26,9,31,24,29,7,341,25,30,17,187,32*48
$GLGSV,10,4,36,65,40,78,35,66,62,310,26,67,14,280,25,74,44,88,37*57
$GLGSV,10,5,36,75,43,89,40,76,22,147,41,81,33,247,27,82,34,310,24*66
$GLGSV,10,6,36,83,6,352,,88,6,209,*53
$BDGSV,10,7,36,201,5,,,202,20,130,,203,5,,,204,5,,*5A
$BDGSV,10,8,36,205,32,180,,206,18,50,,207,5,,,208,73,205,*6A
$BDGSV,10,9,36,209,43,205,,210,5,,,211,6,25,,212,5,,*5F
$BDGSV,10,10,36,213,5,,,214,5,,*6A
$GPRMC,120305.00,A,5159.9897,N,00422.4045,E,0.000,0.000,241119,,E,A*16
$GPGGA,120306.00,5159.9897,N,00422.4045,E,1,16,0.653,12.408,M,,M,0,*7A
$GNGSA,A,3,2,3,5,6,7,9,16,23,26,29,30,65,67,74,75,81,,,,,1.228,0.653,1.040*2C
$GPGSA,A,3,2,3,5,6,7,9,16,23,26,29,30,,,,,,,,,,1.228,0.653,1.040*38
$GLGSA,A,3,65,67,74,75,81,,,,,,,,,,,,,,,,1.228,0.653,1.040*28
$BDGSA,A,3,,,,,,,,,,,,,,,,,,,,,1.228,0.653,1.040*2F
$QZGSA,A,3,,,,,,,,,,,,,,,,,,,,,1.228,0.653,1.040*22
$GPGSV,10,1,36,2,44,283,27,3,8,117,30,4,62,67,28,5,14,296,25*4C
$GPGSV,10,2,36,6,48,216,23,7,45,162,17,9,70,69,36,16,13,56,22*76
$GPGSV,10,3,36,23,40,70,39,26,9,31,24,29,7,341,25,30,17,187,32*48
$GLGSV,10,4,36,65,40,78,35,66,62,310,24,67,14,280,26,74,44,88,38*59
$GLGSV,10,5,36,75,43,89,40,76,22,147,41,81,33,247,28,82,34,310,20*6D
$GLGSV,10,6,36,83,6,352,,88,6,209,*53
$BDGSV,10,7,36,201,5,,,202,20,130,,203,5,,,204,5,,*5A
$BDGSV,10,8,36,205,32,180,,206,18,50,,207,5,,,208,73,205,*6A
$BDGSV,10,9,36,209,43,205,,210,5,,,211,6,25,,212,5,,*5F
$BDGSV,10,10,36,213,5,,,214,5,,*6A
$GPRMC,120306.00,A,5159.9897,N,00422.4045,E,0.000,0.000,241119,,E,A*15
$GPGGA,120307.00,5159.9897,N,00422.4045,E,1,16,0.653,12.408,M,,M,0,*7B
$GNGSA,A,3,2,3,5,6,7,9,16,23,26,29,30,65,67,74,75,81,,,,,1.228,0.653,1.040*2C
$GPGSA,A,3,2,3,5,6,7,9,16,23,26,29,30,,,,,,,,,,1.228,0.653,1.040*38
$GLGSA,A,3,65,67,74,75,81,,,,,,,,,,,,,,,,1.228,0.653,1.040*28
$BDGSA,A,3,,,,,,,,,,,,,,,,,,,,,1.228,0.653,1.040*2F
$QZGSA,A,3,,,,,,,,,,,,,,,,,,,,,1.228,0.653,1.040*22
$GPGSV,10,1,36,2,44,283,27,3,8,117,30,4,62,67,28,5,14,296,24*4D
$GPGSV,10,2,36,6,48,216,24,7,45,162,16,9,70,69,36,16,13,56,22*70
$GPGSV,10,3,36,23,40,70,39,26,9,31,24,29,7,341,25,30,17,187,31*4B
$GLGSV,10,4,36,65,40,78,36,66,62,310,22,67,14,280,28,74,44,88,38*52
$GLGSV,10,5,36,75,43,89,40,76,22,147,41,81,33,247,28,82,34,310,20*6D
$GLGSV,10,6,36,83,6,352,,88,6,209,*53
$BDGSV,10,7,36,201,5,,,202,20,130,,203,5,,,204,5,,*5A
$BDGSV,10,8,36,205,32,180,,206,18,50,,207,5,,,208,73,205,*6A
$BDGSV,10,9,36,209,43,205,,210,5,,,211,6,25,,212,5,,*5F
$BDGSV,10,10,36,213,5,,,214,5,,*6A
$GPRMC,120307.00,A,5159.9897,N,00422.4045,E,0.000,0.000,241119,,E,A*14
$GPGGA,120308.00,5159.9897,N,00422.4045,E,1,16,0.653,12.408,M,,M,0,*74
$GNGSA,A,3,2,3,5,6,7,9,16,23,26,29,30,65,67,74,75,81,,,,,1.228,0.653,1.040*2C
$GPGSA,A,3,2,3,5,6,7,9,16,23,26,29,30,,,,,,,,,,1.228,0.653,1.040*38
$GLGSA,A,3,65,67,74,75,81,,,,,,,,,,,,,,,,1.228,0.653,1.040*28
$BDGSA,A,3,,,,,,,,,,,,,,,,,,,,,1.228,0.653,1.040*2F
$QZGSA,A,3,,,,,,,,,,,,,,,,,,,,,1.228,0.653,1.040*22
$GPGSV,10,1,36,2,44,283,27,3,8,117,30,4,62,67,28,5,14,296,23*4A
$GPGSV,10,2,36,6,48,216,25,7,45,162,15,9,70,69,36,16,13,56,26*76
$GPGSV,10,3,36,23,40,70,39,26,9,31,24,29,7,341,24,30,17,187,31*4A
$GLGSV,10,4,36,65,40,78,35,66,62,310,23,67,14,280,29,74,44,88,38*51
$GLGSV,10,5,36,75,43,89,41,76,22,147,41,81,33,247,28,82,34,310,17*68
$GLGSV,10,6,36,83,6,352,,88,6,209,*53
$BDGSV,10,7,36,201,5,,,202,20,130,,203,5,,,204,5,,*5A
$BDGSV,10,8,36,205,32,180,,206,18,50,,207,5,,,208,73,205,*6A
$BDGSV,10,9,36,209,43,205,,210,5,,,211,6,25,,212,5,,*5F
$BDGSV,10,10,36,213,5,,,214,5,,*6A
$GPRMC,120308.00,A,5159.9897,N,00422.4045,E,0.000,0.000,241119,,E,A*1B
$GPGGA,120309.00,5159.9897,N,00422.4045,E,1,17,0.611,12.408,M,,M,0,*72
$GNGSA,A,3,2,3,5,6,7,9,16,23,26,29,30,65,67,74,75,76,81,,,,1.179,0.611,1.008*20
$GPGSA,A,3,2,3,5,6,7,9,16,23,26,29,30,,,,,,,,,,1.179,0.611,1.008*35
$GLGSA,A,3,65,67,74,75,76,81,,,,,,,,,,,,,,,1.179,0.611,1.008*24
$BDGSA,A,3,,,,,,,,,,,,,,,,,,,,,1.179,0.611,1.008*22
$QZGSA,A,3,,,,,,,,,,,,,,,,,,,,,1.179,0.611,1.008*2F
$GPGSV,10,1,36,2,44,283,26,3,8,117,30,4,62,67,28,5,14,296,23*4B
$GPGSV,10,2,36,6,48,216,24,7,45,162,15,9,70,69,36,16,13,56,28*79
$GPGSV,10,3,36,23,40,70,39,26,9,31,23,29,7,341,23,30,17,187,30*4B
$GLGSV,10,4,36,65,40,78,36,66,62,310,22,67,14,280,30,74,44,88,38*5B
$GLGSV,10,5,36,75,43,89,40,76,22,146,41,81,33,247,28,82,34,310,20*6C
$GLGSV,10,6,36,83,6,352,,88,6,209,*53
$BDGSV,10,7,36,201,5,,,202,20,130,,203,5,,,204,5,,*5A
$BDGSV,10,8,36,205,32,180,,206,18,50,,207,5,,,208,73,205,*6A
$BDGSV,10,9,36,209,43,205,,210,5,,,211,6,25,,212,5,,*5F
$BDGSV,10,10,36,213,5,,,214,5,,*6A
$GPRMC,120309.00,A,5159.9897,N,00422.4045,E,0.000,0.000,241119,,E,A*1A
$GPGGA,120310.00,5159.9897,N,00422.4045,E,1,17,0.611,12.408,M,,M,0,*7A
$GNGSA,A,3,2,3,5,6,7,9,16,23,26,29,30,65,67,74,75,76,81,,,,1.179,0.611,1.008*20
$GPGSA,A,3,2,3,5,6,7,9,16,23,26,29,30,,,,,,,,,,1.179,0.611,1.008*35
$GLGSA,A,3,65,67,74,75,76,81,,,,,,,,,,,,,,,1.179,0.611,1.008*24
$BDGSA,A,3,,,,,,,,,,,,,,,,,,,,,1.179,0.611,1.008*22
$QZGSA,A,3,,,,,,,,,,,,,,,,,,,,,1.179,0.611,1.008*2F
$GPGSV,10,1,36,2,44,283,27,3,8,117,30,4,62,67,29,5,14,296,24*4C
$GPGSV,10,2,36,6,48,216,24,7,45,162,15,9,70,69,36,16,13,56,30*70
$GPGSV,10,3,36,23,40,70,39,26,9,31,21,29,7,341,23,30,17,187,31*48
$GLGSV,10,4,36,65,40,78,36,66,62,310,22,67,14,280,30,74,44,88,38*5B
