$GPGGA,121342.00,5200.0097,N,00422.4853,E,1,14,0.717,54.294,M,,M,0,*78
$GNGSA,A,3,2,5,6,7,9,16,23,29,30,67,74,75,76,81,,,,,,,1.567,0.717,1.393*19
$GPGSA,A,3,2,5,6,7,9,16,23,29,30,,,,,,,,,,,,1.567,0.717,1.393*0F
$GLGSA,A,3,67,74,75,76,81,,,,,,,,,,,,,,,,1.567,0.717,1.393*2A
$BDGSA,A,3,,,,,,,,,,,,,,,,,,,,,1.567,0.717,1.393*2F
$QZGSA,A,3,,,,,,,,,,,,,,,,,,,,,1.567,0.717,1.393*22
$GPGSV,10,1,34,2,45,277,36,4,57,68,25,5,18,297,33,6,43,212,20*77
$GPGSV,10,2,34,7,49,159,26,9,66,70,30,16,14,52,25,23,36,71,25*74
$GPGSV,10,3,34,26,8,27,23,29,8,337,24,30,22,187,27*4E
$GLGSV,10,4,34,65,36,83,13,66,66,321,36,67,18,284,31,74,46,79,24*50
$GLGSV,10,5,34,75,45,82,23,76,27,144,26,81,28,243,24,82,35,304,36*61
$GLGSV,10,6,34,83,10,349,*61
$BDGSV,10,7,34,201,5,,,202,20,130,,203,5,,,204,5,,*58
$BDGSV,10,8,34,205,32,180,,206,17,51,,207,5,,,208,71,204,*65
$BDGSV,10,9,34,209,45,208,,210,5,,,211,6,21,,212,5,,*52
$BDGSV,10,10,34,213,5,,,214,5,,*68
$GPRMC,121342.00,A,5200.0097,N,00422.4853,E,0.000,0.000,241119,,E,A*15
$GPGGA,121343.00,5200.0097,N,00422.4853,E,1,14,0.717,54.294,M,,M,0,*79
$GNGSA,A,3,2,5,6,7,9,16,23,29,30,67,74,75,76,81,,,,,,,1.567,0.717,1.394*1E
$GPGSA,A,3,2,5,6,7,9,16,23,29,30,,,,,,,,,,,,1.567,0.717,1.394*08
$GLGSA,A,3,67,74,75,76,81,,,,,,,,,,,,,,,,1.567,0.717,1.394*2D
$BDGSA,A,3,,,,,,,,,,,,,,,,,,,,,1.567,0.717,1.394*28
$QZGSA,A,3,,,,,,,,,,,,,,,,,,,,,1.567,0.717,1.394*25
$GPGSV,10,1,34,2,45,277,37,4,57,68,21,5,18,297,31,6,43,212,19*7A
$GPGSV,10,2,34,7,49,159,25,9,66,70,25,16,14,52,27,23,36,71,28*7C
$GPGSV,10,3,34,26,8,27,22,29,8,336,15,30,22,187,26*4D
$GLGSV,10,4,34,65,36,83,12,66,66,321,39,67,18,284,25,74,46,79,21*5E
$GLGSV,10,5,34,75,45,82,25,76,27,144,23,81,28,243,31,82,35,304,39*69
$GLGSV,10,6,34,83,10,349,*61
$BDGSV,10,7,34,201,5,,,202,20,130,,203,5,,,204,5,,*58
$BDGSV,10,8,34,205,32,180,,206,17,51,,207,5,,,208,71,204,*65
$BDGSV,10,9,34,209,45,208,,210,5,,,211,6,21,,212,5,,*52
$BDGSV,10,10,34,213,5,,,214,5,,*68
$GPRMC,121343.00,A,5200.0097,N,00422.4853,E,0.000,0.000,241119,,E,A*14
$GPGGA,121344.00,5200.0097,N,00422.4853,E,1,14,0.717,54.294,M,,M,0,*7E
$GNGSA,A,3,2,5,6,7,9,16,23,29,30,67,74,75,76,81,,,,,,,1.568,0.717,1.394*11
$GPGSA,A,3,2,5,6,7,9,16,23,29,30,,,,,,,,,,,,1.568,0.717,1.394*07
$GLGSA,A,3,67,74,75,76,81,,,,,,,,,,,,,,,,1.568,0.717,1.394*22
$BDGSA,A,3,,,,,,,,,,,,,,,,,,,,,1.568,0.717,1.394*27
$QZGSA,A,3,,,,,,,,,,,,,,,,,,,,,1.568,0.717,1.394*2A
$GPGSV,10,1,34,2,45,277,36,4,57,68,25,5,18,297,30,6,43,212,19*7E
$GPGSV,10,2,34,7,49,159,27,9,66,70,26,16,14,52,29,23,36,71,28*73
$GPGSV,10,3,34,26,8,27,24,29,8,336,16,30,22,187,28*46
$GLGSV,10,4,34,65,36,83,9,66,66,321,37,67,18,284,35,74,46,79,21*6B
$GLGSV,10,5,34,75,45,81,21,76,27,144,29,81,28,243,28,82,35,304,36*63
$GLGSV,10,6,34,83,10,349,*61
$BDGSV,10,7,34,201,5,,,202,20,130,,203,5,,,204,5,,*58
$BDGSV,10,8,34,205,32,180,,206,17,51,,207,5,,,208,71,204,*65
$BDGSV,10,9,34,209,45,208,,210,5,,,211,6,21,,212,5,,*52
$BDGSV,10,10,34,213,5,,,214,5,,*68
$GPRMC,121344.00,A,5200.0097,N,00422.4853,E,0.000,0.000,241119,,E,A*13
$GPGGA,121345.00,5200.0097,N,00422.4853,E,1,14,0.717,54.294,M,,M,0,*7F
$GNGSA,A,3,2,5,6,7,9,16,23,29,30,67,74,75,76,81,,,,,,,1.568,0.717,1.394*11
$GPGSA,A,3,2,5,6,7,9,16,23,29,30,,,,,,,,,,,,1.568,0.717,1.394*07
$GLGSA,A,3,67,74,75,76,81,,,,,,,,,,,,,,,,1.568,0.717,1.394*22
$BDGSA,A,3,,,,,,,,,,,,,,,,,,,,,1.568,0.717,1.394*27
$QZGSA,A,3,,,,,,,,,,,,,,,,,,,,,1.568,0.717,1.394*2A
$GPGSV,10,1,34,2,45,277,43,4,57,68,34,5,18,297,28,6,43,212,20*7F
$GPGSV,10,2,34,7,49,159,23,9,66,70,37,16,14,52,28,23,36,71,29*77
$GPGSV,10,3,34,26,8,27,25,29,8,336,21,30,22,187,29*42
$GLGSV,10,4,34,65,36,83,11,66,66,321,35,67,18,284,34,74,46,79,25*55
$GLGSV,10,5,34,75,45,81,18,76,27,144,32,81,28,243,31,82,35,304,40*6A
$GLGSV,10,6,34,83,10,349,*61
$BDGSV,10,7,34,201,5,,,202,20,130,,203,5,,,204,5,,*58
$BDGSV,10,8,34,205,32,180,,206,17,51,,207,5,,,208,71,204,*65
$BDGSV,10,9,34,209,45,208,,210,5,,,211,6,21,,212,5,,*52
$BDGSV,10,10,34,213,5,,,214,5,,*68
$GPRMC,121345.00,A,5200.0097,N,00422.4853,E,0.000,0.000,241119,,E,A*12
$GPGGA,121346.00,5200.0097,N,00422.4853,E,1,14,0.717,54.294,M,,M,0,*7C
$GNGSA,A,3,2,5,6,7,9,16,23,29,30,67,74,75,76,81,,,,,,,1.568,0.717,1.395*10
$GPGSA,A,3,2,5,6,7,9,16,23,29,30,,,,,,,,,,,,1.568,0.717,1.395*06
$GLGSA,A,3,67,74,75,76,81,,,,,,,,,,,,,,,,1.568,0.717,1.395*23
$BDGSA,A,3,,,,,,,,,,,,,,,,,,,,,1.568,0.717,1.395*26
$QZGSA,A,3,,,,,,,,,,,,,,,,,,,,,1.568,0.717,1.395*2B
$GPGSV,10,1,34,2,45,277,42,4,57,68,31,5,18,297,37,6,43,212,23*76
$GPGSV,10,2,34,7,49,159,22,9,66,70,33,16,14,52,30,23,36,71,25*77
$GPGSV,10,3,34,26,8,27,28,29,8,336,26,30,22,187,21*40
$GLGSV,10,4,34,65,36,83,10,66,66,321,31,67,18,284,38,74,46,79,21*58
$GLGSV,10,5,34,75,45,81,16,76,27,144,30,81,28,243,23,82,35,304,35*67
$GLGSV,10,6,34,83,10,349,*61
$BDGSV,10,7,34,201,5,,,202,20,130,,203,5,,,204,5,,*58
$BDGSV,10,8,34,205,32,180,,206,17,51,,207,5,,,208,71,204,*65
$BDGSV,10,9,34,209,45,208,,210,5,,,211,6,21,,212,5,,*52
$BDGSV,10,10,34,213,5,,,214,5,,*68
$GPRMC,121346.00,A,5200.0097,N,00422.4853,E,0.000,0.000,241119,,E,A*11
$GPGGA,121347.00,5200.0097,N,00422.4853,E,1,14,0.717,54.294,M,,M,0,*7D
$GNGSA,A,3,2,5,6,7,9,16,23,29,30,67,74,75,76,81,,,,,,,1.569,0.717,1.395*11
$GPGSA,A,3,2,5,6,7,9,16,23,29,30,,,,,,,,,,,,1.569,0.717,1.395*07
$GLGSA,A,3,67,74,75,76,81,,,,,,,,,,,,,,,,1.569,0.717,1.395*22
$BDGSA,A,3,,,,,,,,,,,,,,,,,,,,,1.569,0.717,1.395*27
$QZGSA,A,3,,,,,,,,,,,,,,,,,,,,,1.569,0.717,1.395*2A
$GPGSV,10,1,34,2,45,277,37,4,57,68,29,5,18,297,39,6,43,212,24*74
$GPGSV,10,2,34,7,49,159,23,9,66,70,34,16,14,52,24,23,36,71,22*73
$GPGSV,10,3,34,26,8,27,30,29,8,336,26,30,22,187,25*4D
$GLGSV,10,4,34,65,36,83,9,66,66,321,31,67,18,284,37,74,46,79,18*65
$GLGSV,10,5,34,75,45,81,20,76,27,144,31,81,28,243,25,82,35,304,39*69
$GLGSV,10,6,34,83,10,349,*61
$BDGSV,10,7,34,201,5,,,202,20,130,,203,5,,,204,5,,*58
$BDGSV,10,8,34,205,32,180,,206,17,51,,207,5,,,208,71,204,*65
$BDGSV,10,9,34,209,45,208,,210,5,,,211,6,21,,212,5,,*52
$BDGSV,10,10,34,213,5,,,214,5,,*68
$GPRMC,121347.00,A,5200.0097,N,00422.4853,E,0.000,0.000,241119,,E,A*10
$GPGGA,121348.00,5200.0097,N,00422.4853,E,1,15,0.696,54.294,M,,M,0,*7B
$GNGSA,A,3,2,5,6,7,9,16,23,26,29,30,67,74,75,76,81,,,,,,1.485,0.696,1.312*11
$GPGSA,A,3,2,5,6,7,9,16,23,26,29,30,,,,,,,,,,,1.485,0.696,1.312*07
$GLGSA,A,3,67,74,75,76,81,,,,,,,,,,,,,,,,1.485,0.696,1.312*26
$BDGSA,A,3,,,,,,,,,,,,,,,,,,,,,1.485,0.696,1.312*23
$QZGSA,A,3,,,,,,,,,,,,,,,,,,,,,1.485,0.696,1.312*2E
$GPGSV,10,1,34,2,45,276,36,4,57,68,29,5,18,297,39,6,43,212,22*72
$GPGSV,10,2,34,7,49,159,27,9,66,70,33,16,14,52,23,23,36,71,23*76
$GPGSV,10,3,34,26,8,27,30,29,8,336,27,30,22,187,24*4D
$GLGSV,10,4,34,65,36,83,8,66,66,321,24,67,18,284,38,74,46,79,18*6F
$GLGSV,10,5,34,75,45,81,18,76,27,144,30,81,28,243,27,82,35,304,38*60
$GLGSV,10,6,34,83,10,349,*61
$BDGSV,10,7,34,201,5,,,202,20,130,,203,5,,,204,5,,*58
$BDGSV,10,8,34,205,32,180,,206,17,51,,207,5,,,208,71,204,*65
$BDGSV,10,9,34,209,45,208,,210,5,,,211,6,21,,212,5,,*52
$BDGSV,10,10,34,213,5,,,214,5,,*68
$GPRMC,121348.00,A,5200.0097,N,00422.4853,E,0.000,0.000,241119,,E,A*1F
$GPGGA,121349.00,5200.0097,N,00422.4853,E,1,15,0.696,54.294,M,,M,0,*7A
$GNGSA,A,3,2,5,6,7,9,16,23,26,29,30,67,74,75,76,81,,,,,,1.485,0.696,1.312*11
$GPGSA,A,3,2,5,6,7,9,16,23,26,29,30,,,,,,,,,,,1.485,0.696,1.312*07
$GLGSA,A,3,67,74,75,76,81,,,,,,,,,,,,,,,,1.485,0.696,1.312*26
$BDGSA,A,3,,,,,,,,,,,,,,,,,,,,,1.485,0.696,1.312*23
$QZGSA,A,3,,,,,,,,,,,,,,,,,,,,,1.485,0.696,1.312*2E
$GPGSV,10,1,34,2,45,276,39,4,57,68,30,5,18,297,38,6,43,212,22*74
$GPGSV,10,2,34,7,49,159,26,9,66,70,31,16,14,52,26,23,36,71,24*77
$GPGSV,10,3,34,26,8,27,28,29,8,336,27,30,22,187,24*44
$GLGSV,10,4,34,65,36,83,10,66,66,321,25,67,18,284,39,74,46,79,18*56
$GLGSV,10,5,34,75,45,81,18,76,27,144,30,81,28,243,28,82,35,304,36*61
$GLGSV,10,6,34,83,10,349,*61
$BDGSV,10,7,34,201,5,,,202,20,130,,203,5,,,204,5,,*58
$BDGSV,10,8,34,205,32,180,,206,17,51,,207,5,,,208,71,204,*65
$BDGSV,10,9,34,209,45,208,,210,5,,,211,6,21,,212,5,,*52
$BDGSV,10,10,34,213,5,,,214,5,,*68
$GPRMC,121349.00,A,5200.0097,N,00422.4853,E,0.000,0.000,241119,,E,A*1E
$GPGGA,121350.00,5200.0097,N,00422.4853,E,1,15,0.696,54.294,M,,M,0,*72
$GNGSA,A,3,2,5,6,7,9,16,23,26,29,30,67,74,75,76,81,,,,,,1.485,0.696,1.312*11
$GPGSA,A,3,2,5,6,7,9,16,23,26,29,30,,,,,,,,,,,1.485,0.696,1.312*07
$GLGSA,A,3,67,74,75,76,81,,,,,,,,,,,,,,,,1.485,0.696,1.312*26
$BDGSA,A,3,,,,,,,,,,,,,,,,,,,,,1.485,0.696,1.312*23
$QZGSA,A,3,,,,,,,,,,,,,,,,,,,,,1.485,0.696,1.312*2E
$GPGSV,10,1,34,2,45,276,40,4,57,68,30,5,18,297,37,6,43,212,19*7D
$GPGSV,10,2,34,7,49,159,28,9,66,70,28,16,14,52,27,23,36,71,20*74
$GPGSV,10,3,34,26,8,27,24,29,8,336,24,30,22,187,27*48
$GLGSV,10,4,34,65,36,83,13,66,66,321,34,67,18,284,36,74,46,79,18*5A
$GLGSV,10,5,34,75,45,81,18,76,27,144,30,81,28,243,26,82,35,304,34*6D
$GLGSV,10,6,34,83,10,349,*61
$BDGSV,10,7,34,201,5,,,202,20,130,,203,5,,,204,5,,*58
$BDGSV,10,8,34,205,32,180,,206,17,51,,207,5,,,208,71,204,*65
$BDGSV,10,9,34,209,45,208,,210,5,,,211,6,21,,212,5,,*52
$BDGSV,10,10,34,213,5,,,214,5,,*68
$GPRMC,121350.00,A,5200.0097,N,00422.4853,E,0.000,0.000,241119,,E,A*16
$GPGGA,121351.00,5200.0097,N,00422.4853,E,1,15,0.696,54.294,M,,M,0,*73
$GNGSA,A,3,2,5,6,7,9,16,23,26,29,30,67,74,75,76,81,,,,,,1.485,0.696,1.312*11
$GPGSA,A,3,2,5,6,7,9,16,23,26,29,30,,,,,,,,,,,1.485,0.696,1.312*07
$GLGSA,A,3,67,74,75,76,81,,,,,,,,,,,,,,,,1.485,0.696,1.312*26
$BDGSA,A,3,,,,,,,,,,,,,,,,,,,,,1.485,0.696,1.312*23
$QZGSA,A,3,,,,,,,,,,,,,,,,,,,,,1.485,0.696,1.312*2E
$GPGSV,10,1,34,2,45,276,39,4,57,68,29,5,18,297,32,6,43,212,21*75
$GPGSV,10,2,34,7,49,159,22,9,65,70,26,16,14,52,31,23,36,71,29*7D
$GPGSV,10,3,34,26,8,27,24,29,8,336,24,30,22,187,30*4E
$GLGSV,10,4,34,65,36,83,15,66,66,321,31,67,18,284,35,74,46,79,18*5A
$GLGSV,10,5,34,75,45,81,22,76,27,144,26,81,28,243,28,82,35,304,36*6F
$GLGSV,10,6,34,83,10,349,*61
$BDGSV,10,7,34,201,5,,,202,20,130,,203,5,,,204,5,,*58
$BDGSV,10,8,34,205,32,180,,206,17,51,,207,5,,,208,71,204,*65
$BDGSV,10,9,34,209,45,208,,210,5,,,211,6,21,,212,5,,*52
$BDGSV,10,10,34,213,5,,,214,5,,*68
$GPRMC,121351.00,A,5200.0097,N,00422.4853,E,0.000,0.000,241119,,E,A*17
$GPGGA,121352.00,5200.0097,N,00422.4853,E,1,15,0.696,54.294,M,,M,0,*70
$GNGSA,A,3,2,5,6,7,9,16,23,26,29,30,67,74,75,76,81,,,,,,1.486,0.696,1.313*13
$GPGSA,A,3,2,5,6,7,9,16,23,26,29,30,,,,,,,,,,,1.486,0.696,1.313*05
$GLGSA,A,3,67,74,75,76,81,,,,,,,,,,,,,,,,1.486,0.696,1.313*24
$BDGSA,A,3,,,,,,,,,,,,,,,,,,,,,1.486,0.696,1.313*21
$QZGSA,A,3,,,,,,,,,,,,,,,,,,,,,1.486,0.696,1.313*2C
$GPGSV,10,1,34,2,45,276,25,4,57,68,24,5,18,297,34,6,43,212,20*72
$GPGSV,10,2,34,7,49,159,25,9,65,70,33,16,14,52,31,23,36,71,31*77
$GPGSV,10,3,34,26,8,27,26,29,8,336,23,30,22,187,25*4F
$GLGSV,10,4,34,65,36,83,15,66,66,321,35,67,18,284,33,74,46,79,24*57
$GLGSV,10,5,34,75,45,81,25,76,27,144,30,81,28,243,28,82,35,304,36*6F
$GLGSV,10,6,34,83,10,349,*61
$BDGSV,10,7,34,201,5,,,202,20,130,,203,5,,,204,5,,*58
$BDGSV,10,8,34,205,32,180,,206,17,51,,207,5,,,208,71,204,*65
$BDGSV,10,9,34,209,45,208,,210,5,,,211,6,21,,212,5,,*52
$BDGSV,10,10,34,213,5,,,214,5,,*68
$GPRMC,121352.00,A,5200.0097,N,00422.4853,E,0.000,0.000,241119,,E,A*14
$GPGGA,121353.00,5200.0100,N,00422.4848,E,1,14,0.719,54.887,M,,M,0,*7B
$GNGSA,A,3,2,5,6,7,9,16,23,26,29,30,67,74,75,76,,,,,,,1.499,0.719,1.315*14
$GPGSA,A,3,2,5,6,7,9,16,23,26,29,30,,,,,,,,,,,1.499,0.719,1.315*0B
$GLGSA,A,3,67,74,75,76,,,,,,,,,,,,,,,,,1.499,0.719,1.315*23
$BDGSA,A,3,,,,,,,,,,,,,,,,,,,,,1.499,0.719,1.315*2F
$QZGSA,A,3,,,,,,,,,,,,,,,,,,,,,1.499,0.719,1.315*22
$GPGSV,10,1,34,2,45,276,36,4,57,68,23,5,18,297,36,6,43,212,22*77
$GPGSV,10,2,34,7,49,159,26,9,65,70,30,16,14,52,30,23,36,71,29*7F
$GPGSV,10,3,34,26,8,27,23,29,8,336,24,30,22,187,26*4E
$GLGSV,10,4,34,65,36,83,17,66,66,321,32,67,18,284,34,74,46,79,21*50
$GLGSV,10,5,34,75,45,81,25,76,27,144,30,81,28,243,22,82,35,304,34*67
$GLGSV,10,6,34,83,10,349,*61
$BDGSV,10,7,34,201,5,,,202,20,130,,203,5,,,204,5,,*58
$BDGSV,10,8,34,205,32,180,,206,17,51,,207,5,,,208,71,204,*65
$BDGSV,10,9,34,209,45,208,,210,5,,,211,6,21,,212,5,,*52
$BDGSV,10,10,34,213,5,,,214,5,,*68
$GPRMC,121353.00,A,5200.0100,N,00422.4848,E,1.186,0.000,241119,,E,A*1E
$GPGGA,121354.00,5200.0102,N,00422.4842,E,1,14,0.719,55.244,M,,M,0,*70
$GNGSA,A,3,2,5,6,7,9,16,23,26,29,30,67,74,75,76,,,,,,,1.499,0.719,1.315*14
$GPGSA,A,3,2,5,6,7,9,16,23,26,29,30,,,,,,,,,,,1.499,0.719,1.315*0B
$GLGSA,A,3,67,74,75,76,,,,,,,,,,,,,,,,,1.499,0.719,1.315*23
$BDGSA,A,3,,,,,,,,,,,,,,,,,,,,,1.499,0.719,1.315*2F
$QZGSA,A,3,,,,,,,,,,,,,,,,,,,,,1.499,0.719,1.315*22
$GPGSV,10,1,34,2,45,276,34,4,57,68,28,5,18,297,40,6,43,212,18*76
$GPGSV,10,2,34,7,49,159,24,9,65,70,30,16,14,52,31,23,36,71,27*72
$GPGSV,10,3,34,26,8,26,22,29,8,336,25,30,22,187,23*4A
$GLGSV,10,4,34,65,36,83,17,66,66,321,38,67,18,284,34,74,46,79,22*59
$GLGSV,10,5,34,75,45,81,23,76,27,144,28,81,28,243,26,82,35,304,32*6A
$GLGSV,10,6,34,83,10,349,*61
$BDGSV,10,7,34,201,5,,,202,20,130,,203,5,,,204,5,,*58
$BDGSV,10,8,34,205,32,180,,206,17,51,,207,5,,,208,71,204,*65
$BDGSV,10,9,34,209,45,208,,210,5,,,211,6,21,,212,5,,*52
$BDGSV,10,10,34,213,5,,,214,5,,*68
$GPRMC,121354.00,A,5200.0102,N,00422.4842,E,1.492,0.000,241119,,E,A*11
$GPGGA,121355.00,5200.0104,N,00422.4837,E,1,16,0.685,55.778,M,,M,0,*79
$GNGSA,A,3,2,5,6,7,9,16,23,26,29,30,65,67,74,75,76,81,,,,,1.481,0.685,1.313*15
$GPGSA,A,3,2,5,6,7,9,16,23,26,29,30,,,,,,,,,,,1.481,0.685,1.313*00
$GLGSA,A,3,65,67,74,75,76,81,,,,,,,,,,,,,,,1.481,0.685,1.313*22
$BDGSA,A,3,,,,,,,,,,,,,,,,,,,,,1.481,0.685,1.313*24
$QZGSA,A,3,,,,,,,,,,,,,,,,,,,,,1.481,0.685,1.313*29
$GPGSV,10,1,34,2,45,276,34,4,57,68,26,5,18,297,36,6,43,212,20*72
$GPGSV,10,2,34,7,49,159,24,9,65,70,34,16,14,52,31,23,36,71,32*72
$GPGSV,10,3,34,26,8,26,23,29,8,336,25,30,22,187,24*4C
$GLGSV,10,4,34,65,36,83,17,66,66,321,34,67,18,284,34,74,46,79,21*56
$GLGSV,10,5,34,75,45,81,23,76,27,144,25,81,28,243,25,82,35,303,35*64
$GLGSV,10,6,34,83,10,349,*61
$BDGSV,10,7,34,201,5,,,202,20,130,,203,5,,,204,5,,*58
$BDGSV,10,8,34,205,32,180,,206,17,51,,207,5,,,208,71,204,*65
$BDGSV,10,9,34,209,45,208,,210,5,,,211,6,21,,212,5,,*52
$BDGSV,10,10,34,213,5,,,214,5,,*68
$GPRMC,121355.00,A,5200.0104,N,00422.4837,E,1.592,0.000,241119,,E,A*15
$GPGGA,121356.00,5200.0106,N,00422.4831,E,1,16,0.685,56.144,M,,M,0,*74
$GNGSA,A,3,2,5,6,7,9,16,23,26,29,30,65,67,74,75,76,81,,,,,1.481,0.685,1.313*15
$GPGSA,A,3,2,5,6,7,9,16,23,26,29,30,,,,,,,,,,,1.481,0.685,1.313*00
$GLGSA,A,3,65,67,74,75,76,81,,,,,,,,,,,,,,,1.481,0.685,1.313*22
$BDGSA,A,3,,,,,,,,,,,,,,,,,,,,,1.481,0.685,1.313*24
$QZGSA,A,3,,,,,,,,,,,,,,,,,,,,,1.481,0.685,1.313*29
$GPGSV,10,1,34,2,45,276,37,4,57,68,28,5,18,297,36,6,43,212,22*7D
$GPGSV,10,2,34,7,49,159,25,9,65,70,32,16,14,52,32,23,36,71,26*73
$GPGSV,10,3,34,26,8,26,22,29,8,336,23,30,22,187,22*4D
$GLGSV,10,4,34,65,36,83,17,66,66,321,32,67,18,284,32,74,46,79,27*50
$GLGSV,10,5,34,75,45,81,24,76,27,144,27,81,28,243,29,82,35,303,31*69
$GLGSV,10,6,34,83,10,349,*61
$BDGSV,10,7,34,201,5,,,202,20,130,,203,5,,,204,5,,*58
$BDGSV,10,8,34,205,32,180,,206,17,51,,207,5,,,208,71,204,*65
$BDGSV,10,9,34,209,45,208,,210,5,,,211,6,21,,212,5,,*52
$BDGSV,10,10,34,213,5,,,214,5,,*68
$GPRMC,121356.00,A,5200.0106,N,00422.4831,E,1.260,0.000,241119,,E,A*18
$GPGGA,121357.00,5200.0107,N,00422.4826,E,1,16,0.685,56.442,M,,M,0,*71
$GNGSA,A,3,2,5,6,7,9,16,23,26,29,30,65,67,74,75,76,81,,,,,1.481,0.685,1.314*12
$GPGSA,A,3,2,5,6,7,9,16,23,26,29,30,,,,,,,,,,,1.481,0.685,1.314*07
$GLGSA,A,3,65,67,74,75,76,81,,,,,,,,,,,,,,,1.481,0.685,1.314*25
$BDGSA,A,3,,,,,,,,,,,,,,,,,,,,,1.481,0.685,1.314*23
$QZGSA,A,3,,,,,,,,,,,,,,,,,,,,,1.481,0.685,1.314*2E
$GPGSV,10,1,34,2,45,276,35,4,57,68,29,5,18,297,35,6,43,212,18*74
$GPGSV,10,2,34,7,49,159,26,9,65,70,31,16,14,52,31,23,36,71,28*7E
$GPGSV,10,3,34,26,8,26,19,29,8,336,23,30,22,187,21*46
$GLGSV,10,4,34,65,36,83,17,66,66,321,35,67,18,284,33,74,46,79,23*52
$GLGSV,10,5,34,75,45,81,27,76,27,144,27,81,28,243,28,82,35,303,34*6E
$GLGSV,10,6,34,83,10,349,*61
$BDGSV,10,7,34,201,5,,,202,20,130,,203,5,,,204,5,,*58
$BDGSV,10,8,34,205,32,180,,206,17,51,,207,5,,,208,71,204,*65
$BDGSV,10,9,34,209,45,208,,210,5,,,211,6,21,,212,5,,*52
$BDGSV,10,10,34,213,5,,,214,5,,*68
$GPRMC,121357.00,A,5200.0107,N,00422.4826,E,1.399,0.000,241119,,E,A*19
$GPGGA,121358.00,5200.0109,N,00422.4821,E,1,16,0.685,56.806,M,,M,0,*7B
$GNGSA,A,3,2,5,6,7,9,16,23,26,29,30,65,67,74,75,76,81,,,,,1.482,0.685,1.314*11
$GPGSA,A,3,2,5,6,7,9,16,23,26,29,30,,,,,,,,,,,1.482,0.685,1.314*04
$GLGSA,A,3,65,67,74,75,76,81,,,,,,,,,,,,,,,1.482,0.685,1.314*26
$BDGSA,A,3,,,,,,,,,,,,,,,,,,,,,1.482,0.685,1.314*20
$QZGSA,A,3,,,,,,,,,,,,,,,,,,,,,1.482,0.685,1.314*2D
$GPGSV,10,1,34,2,45,276,34,4,57,68,29,5,18,297,37,6,43,212,19*76
$GPGSV,10,2,34,7,49,159,24,9,65,70,29,16,14,52,34,23,36,71,34*7D
$GPGSV,10,3,34,26,8,26,19,29,8,336,20,30,22,187,20*44
$GLGSV,10,4,34,65,36,83,17,66,66,321,33,67,18,284,35,74,46,79,23*52
$GLGSV,10,5,34,75,45,81,28,76,27,144,26,81,28,243,27,82,35,303,35*6E
$GLGSV,10,6,34,83,10,349,*61
$BDGSV,10,7,34,201,5,,,202,20,130,,203,5,,,204,5,,*58
$BDGSV,10,8,34,205,32,180,,206,17,51,,207,5,,,208,71,204,*65
$BDGSV,10,9,34,209,45,208,,210,5,,,211,6,21,,212,5,,*52
$BDGSV,10,10,34,213,5,,,214,5,,*68
$GPRMC,121358.00,A,5200.0109,N,00422.4821,E,1.699,0.000,241119,,E,A*1A
$GPGGA,121359.00,5200.0110,N,00422.4814,E,1,16,0.685,57.180,M,,M,0,*72
$GNGSA,A,3,2,5,6,7,9,16,23,26,29,30,65,67,74,75,76,81,,,,,1.482,0.685,1.314*11
$GPGSA,A,3,2,5,6,7,9,16,23,26,29,30,,,,,,,,,,,1.482,0.685,1.314*04
$GLGSA,A,3,65,67,74,75,76,81,,,,,,,,,,,,,,,1.482,0.685,1.314*26
$BDGSA,A,3,,,,,,,,,,,,,,,,,,,,,1.482,0.685,1.314*20
$QZGSA,A,3,,,,,,,,,,,,,,,,,,,,,1.482,0.685,1.314*2D
$GPGSV,10,1,34,2,45,276,36,4,57,68,29,5,18,297,38,6,43,212,24*75
$GPGSV,10,2,34,7,49,159,26,9,65,70,35,16,14,52,34,23,36,71,32*74
$GPGSV,10,3,34,26,8,26,20,29,8,336,23,30,22,187,19*47
$GLGSV,10,4,34,65,36,83,18,66,66,321,27,67,18,284,34,74,46,79,25*5F
$GLGSV,10,5,34,75,45,81,27,76,27,144,27,81,28,243,30,82,35,303,33*60
$GLGSV,10,6,34,83,10,349,*61
$BDGSV,10,7,34,201,5,,,202,20,130,,203,5,,,204,5,,*58
$BDGSV,10,8,34,205,32,180,,206,17,51,,207,5,,,208,71,204,*65
$BDGSV,10,9,34,209,45,208,,210,5,,,211,6,21,,212,5,,*52
$BDGSV,10,10,34,213,5,,,214,5,,*68
$GPRMC,121359.00,A,5200.0110,N,00422.4814,E,1.624,0.000,241119,,E,A*13
$GPGGA,121400.00,5200.0112,N,00422.4809,E,1,15,0.704,56.954,M,,M,0,*7C
$GNGSA,A,3,2,5,6,7,9,16,23,29,30,65,67,74,75,76,81,,,,,,1.566,0.704,1.398*12
$GPGSA,A,3,2,5,6,7,9,16,23,29,30,,,,,,,,,,,,1.566,0.704,1.398*07
$GLGSA,A,3,65,67,74,75,76,81,,,,,,,,,,,,,,,1.566,0.704,1.398*21
$BDGSA,A,3,,,,,,,,,,,,,,,,,,,,,1.566,0.704,1.398*27
$QZGSA,A,3,,,,,,,,,,,,,,,,,,,,,1.566,0.704,1.398*2A
$GPGSV,10,1,34,2,45,276,35,4,57,68,28,5,18,297,34,6,43,212,22*7D
$GPGSV,10,2,34,7,49,159,25,9,65,70,36,16,14,52,32,23,36,71,32*72
$GPGSV,10,3,34,26,8,26,19,29,8,336,25,30,22,187,20*41
$GLGSV,10,4,34,65,36,83,22,66,66,321,31,67,18,284,39,74,46,79,22*5B
$GLGSV,10,5,34,75,45,81,27,76,27,144,23,81,28,243,33,82,35,303,33*67
$GLGSV,10,6,34,83,10,349,*61
$BDGSV,10,7,34,201,5,,,202,20,130,,203,5,,,204,5,,*58
$BDGSV,10,8,34,205,32,180,,206,17,51,,207,5,,,208,71,204,*65
$BDGSV,10,9,34,209,45,208,,210,5,,,211,6,21,,212,5,,*52
$BDGSV,10,10,34,213,5,,,214,5,,*68
$GPRMC,121400.00,A,5200.0112,N,00422.4809,E,1.324,0.000,241119,,E,A*13
$GPGGA,121401.00,5200.0112,N,00422.4805,E,1,15,0.704,56.829,M,,M,0,*7A
$GNGSA,A,3,2,5,6,7,9,16,23,29,30,65,67,74,75,76,81,,,,,,1.566,0.704,1.399*13
$GPGSA,A,3,2,5,6,7,9,16,23,29,30,,,,,,,,,,,,1.566,0.704,1.399*06
$GLGSA,A,3,65,67,74,75,76,81,,,,,,,,,,,,,,,1.566,0.704,1.399*20
$BDGSA,A,3,,,,,,,,,,,,,,,,,,,,,1.566,0.704,1.399*26
$QZGSA,A,3,,,,,,,,,,,,,,,,,,,,,1.566,0.704,1.399*2B
$GPGSV,10,1,34,2,45,276,35,4,57,68,28,5,18,297,37,6,43,212,22*7E
$GPGSV,10,2,34,7,49,159,23,9,65,70,32,16,14,52,32,23,36,71,32*70
$GPGSV,10,3,34,26,8,26,19,29,8,336,23,30,22,187,20*47
$GLGSV,10,4,34,65,36,83,21,66,66,321,36,67,18,284,38,74,46,79,25*59
$GLGSV,10,5,34,75,45,81,27,76,28,144,27,81,28,243,34,82,35,303,29*60
$GLGSV,10,6,34,83,10,349,*61
$BDGSV,10,7,34,201,5,,,202,20,130,,203,5,,,204,5,,*58
$BDGSV,10,8,34,205,32,180,,206,17,51,,207,5,,,208,71,204,*65
$BDGSV,10,9,34,209,45,208,,210,5,,,211,6,21,,212,5,,*52
$BDGSV,10,10,34,213,5,,,214,5,,*68
$GPRMC,121401.00,A,5200.0112,N,00422.4805,E,1.541,0.000,241119,,E,A*1B
$GPGGA,121402.00,5200.0114,N,00422.4800,E,1,15,0.704,56.634,M,,M,0,*78
$GNGSA,A,3,2,5,6,7,9,16,23,29,30,65,67,74,75,76,81,,,,,,1.566,0.704,1.399*13
$GPGSA,A,3,2,5,6,7,9,16,23,29,30,,,,,,,,,,,,1.566,0.704,1.399*06
$GLGSA,A,3,65,67,74,75,76,81,,,,,,,,,,,,,,,1.566,0.704,1.399*20
$BDGSA,A,3,,,,,,,,,,,,,,,,,,,,,1.566,0.704,1.399*26
$QZGSA,A,3,,,,,,,,,,,,,,,,,,,,,1.566,0.704,1.399*2B
$GPGSV,10,1,34,2,45,276,36,4,57,68,27,5,18,297,34,6,43,211,22*72
$GPGSV,10,2,34,7,49,159,23,9,65,70,39,16,14,51,33,23,36,71,34*7F
$GPGSV,10,3,34,26,8,26,18,29,8,336,24,30,22,187,23*42
$GLGSV,10,4,34,65,36,83,20,66,66,321,33,67,18,284,38,74,46,79,27*5F
$GLGSV,10,5,34,75,45,81,31,76,28,144,26,81,28,243,32,82,35,303,30*68
$GLGSV,10,6,34,83,10,349,*61
$BDGSV,10,7,34,201,5,,,202,20,130,,203,5,,,204,5,,*58
$BDGSV,10,8,34,205,32,180,,206,17,51,,207,5,,,208,71,204,*65
$BDGSV,10,9,34,209,45,208,,210,5,,,211,6,21,,212,5,,*52
$BDGSV,10,10,34,213,5,,,214,5,,*68
$GPRMC,121402.00,A,5200.0114,N,00422.4800,E,2.158,288.956,241119,,E,A*1C
$GPGGA,121403.00,5200.0118,N,00422.4791,E,1,15,0.704,56.709,M,,M,0,*7D
$GNGSA,A,3,2,5,6,7,9,16,23,29,30,65,67,74,75,76,81,,,,,,1.566,0.704,1.399*13
$GPGSA,A,3,2,5,6,7,9,16,23,29,30,,,,,,,,,,,,1.566,0.704,1.399*06
$GLGSA,A,3,65,67,74,75,76,81,,,,,,,,,,,,,,,1.566,0.704,1.399*20
$BDGSA,A,3,,,,,,,,,,,,,,,,,,,,,1.566,0.704,1.399*26
$QZGSA,A,3,,,,,,,,,,,,,,,,,,,,,1.566,0.704,1.399*2B
$GPGSV,10,1,34,2,45,276,33,4,57,68,31,5,18,297,34,6,43,211,27*75
$GPGSV,10,2,34,7,50,159,19,9,65,70,33,16,14,51,31,23,36,71,31*73
$GPGSV,10,3,34,26,8,26,19,29,8,336,24,30,22,187,23*43
$GLGSV,10,4,34,65,36,83,26,66,66,321,33,67,18,284,36,74,46,79,32*53
$GLGSV,10,5,34,75,45,81,28,76,28,144,27,81,28,243,33,82,35,303,29*68
$GLGSV,10,6,34,83,10,349,*61
$BDGSV,10,7,34,201,5,,,202,20,130,,203,5,,,204,5,,*58
$BDGSV,10,8,34,205,32,180,,206,17,51,,207,5,,,208,71,204,*65
$BDGSV,10,9,34,209,45,208,,210,5,,,211,6,21,,212,5,,*52
$BDGSV,10,10,34,213,5,,,214,5,,*68
$GPRMC,121403.00,A,5200.0118,N,00422.4791,E,1.958,259.009,241119,,E,A*12
$GPGGA,121404.00,5200.0118,N,00422.4783,E,1,15,0.704,56.904,M,,M,0,*7A
$GNGSA,A,3,2,5,6,7,9,16,23,29,30,65,67,74,75,76,81,,,,,,1.567,0.704,1.400*15
$GPGSA,A,3,2,5,6,7,9,16,23,29,30,,,,,,,,,,,,1.567,0.704,1.400*00
$GLGSA,A,3,65,67,74,75,76,81,,,,,,,,,,,,,,,1.567,0.704,1.400*26
$BDGSA,A,3,,,,,,,,,,,,,,,,,,,,,1.567,0.704,1.400*20
$QZGSA,A,3,,,,,,,,,,,,,,,,,,,,,1.567,0.704,1.400*2D
$GPGSV,10,1,34,2,45,276,33,4,57,68,26,5,18,297,37,6,43,211,32*74
$GPGSV,10,2,34,7,50,159,21,9,65,70,33,16,14,51,29,23,36,71,30*70
$GPGSV,10,3,34,26,8,26,19,29,8,336,22,30,22,187,22*44
$GLGSV,10,4,34,65,36,83,25,66,66,321,32,67,18,284,37,74,46,79,26*55
$GLGSV,10,5,34,75,45,81,29,76,28,144,28,81,28,243,36,82,35,303,32*69
$GLGSV,10,6,34,83,10,349,*61
$BDGSV,10,7,34,201,5,,,202,20,130,,203,5,,,204,5,,*58
$BDGSV,10,8,34,205,32,180,,206,17,51,,207,5,,,208,71,204,*65
$BDGSV,10,9,34,209,45,208,,210,5,,,211,6,21,,212,5,,*52
$BDGSV,10,10,34,213,5,,,214,5,,*68
$GPRMC,121404.00,A,5200.0118,N,00422.4783,E,1.771,238.884,241119,,E,A*19
$GPGGA,121405.00,5200.0117,N,00422.4778,E,1,15,0.704,57.213,M,,M,0,*7C
$GNGSA,A,3,2,5,6,7,9,16,23,29,30,65,67,74,75,76,81,,,,,,1.567,0.704,1.400*15
$GPGSA,A,3,2,5,6,7,9,16,23,29,30,,,,,,,,,,,,1.567,0.704,1.400*00
$GLGSA,A,3,65,67,74,75,76,81,,,,,,,,,,,,,,,1.567,0.704,1.400*26
$BDGSA,A,3,,,,,,,,,,,,,,,,,,,,,1.567,0.704,1.400*20
$QZGSA,A,3,,,,,,,,,,,,,,,,,,,,,1.567,0.704,1.400*2D
$GPGSV,10,1,34,2,45,276,29,4,57,68,28,5,18,297,40,6,43,211,33*70
$GPGSV,10,2,34,7,50,159,20,9,65,70,35,16,14,51,31,23,36,71,29*76
$GPGSV,10,3,34,26,8,26,18,29,8,336,21,30,22,187,24*40
$GLGSV,10,4,34,65,36,83,20,66,66,321,33,67,18,284,35,74,46,79,28*5D
$GLGSV,10,5,34,75,45,81,30,76,28,144,29,81,28,243,36,82,35,303,28*6B
$GLGSV,10,6,34,83,10,349,*61
$BDGSV,10,7,34,201,5,,,202,20,130,,203,5,,,204,5,,*58
$BDGSV,10,8,34,205,32,180,,206,17,51,,207,5,,,208,71,204,*65
$BDGSV,10,9,34,209,45,208,,210,5,,,211,6,21,,212,5,,*52
$BDGSV,10,10,34,213,5,,,214,5,,*68
$GPRMC,121405.00,A,5200.0117,N,00422.4778,E,1.757,262.189,241119,,E,A*1C
$GPGGA,121406.00,5200.0116,N,00422.4774,E,1,14,0.746,57.554,M,,M,0,*71
$GNGSA,A,3,2,5,6,7,9,16,23,30,65,67,74,75,76,81,,,,,,,1.661,0.746,1.484*11
$GPGSA,A,3,2,5,6,7,9,16,23,30,,,,,,,,,,,,,1.661,0.746,1.484*04
$GLGSA,A,3,65,67,74,75,76,81,,,,,,,,,,,,,,,1.661,0.746,1.484*29
$BDGSA,A,3,,,,,,,,,,,,,,,,,,,,,1.661,0.746,1.484*2F
$QZGSA,A,3,,,,,,,,,,,,,,,,,,,,,1.661,0.746,1.484*22
$GPGSV,10,1,33,2,45,276,29,4,57,68,29,5,18,297,36,6,43,211,33*77
$GPGSV,10,2,33,7,50,159,23,9,65,70,34,16,14,51,33,23,36,71,28*70
$GPGSV,10,3,33,26,8,26,18,29,8,336,26,30,22,187,23*47
$GLGSV,10,4,33,65,36,83,22,66,66,321,35,67,18,284,32,74,46,79,29*58
$GLGSV,10,5,33,75,45,81,29,76,28,144,28,81,28,243,37,82,35,303,36*6B
$GLGSV,10,6,33,83,10,349,*66
$BDGSV,10,7,33,202,20,130,,203,5,,,204,5,,,205,32,180,*56
$BDGSV,10,8,33,206,17,51,,207,5,,,208,71,204,,209,45,208,*6D
$BDGSV,10,9,33,210,5,,,211,6,21,,212,5,,,213,5,,*50
$BDGSV,10,10,33,214,5,,*6A
$GPRMC,121406.00,A,5200.0116,N,00422.4774,E,1.069,253.786,241119,,E,A*13
$GPGGA,121407.00,5200.0113,N,00422.4776,E,1,14,0.746,58.380,M,,M,0,*77
$GNGSA,A,3,2,5,6,7,9,16,23,30,65,67,74,75,76,81,,,,,,,1.661,0.746,1.484*11
$GPGSA,A,3,2,5,6,7,9,16,23,30,,,,,,,,,,,,,1.661,0.746,1.484*04
$GLGSA,A,3,65,67,74,75,76,81,,,,,,,,,,,,,,,1.661,0.746,1.484*29
$BDGSA,A,3,,,,,,,,,,,,,,,,,,,,,1.661,0.746,1.484*2F
$QZGSA,A,3,,,,,,,,,,,,,,,,,,,,,1.661,0.746,1.484*22
$GPGSV,10,1,33,2,45,276,31,4,57,68,27,5,18,297,43,6,43,211,37*76
$GPGSV,10,2,33,7,50,159,20,9,65,70,36,16,14,51,30,23,36,71,26*7C
$GPGSV,10,3,33,26,8,26,18,29,8,336,29,30,22,187,24*4F
$GLGSV,10,4,33,65,36,83,22,66,66,321,35,67,18,284,35,74,46,79,30*57
$GLGSV,10,5,33,75,45,81,27,76,28,144,26,81,28,243,37,82,35,303,34*69
$GLGSV,10,6,33,83,10,349,*66
$BDGSV,10,7,33,202,20,130,,203,5,,,204,5,,,205,32,180,*56
$BDGSV,10,8,33,206,17,51,,207,5,,,208,71,204,,209,45,208,*6D
$BDGSV,10,9,33,210,5,,,211,6,21,,212,5,,,213,5,,*50
$BDGSV,10,10,33,214,5,,*6A
$GPRMC,121407.00,A,5200.0113,N,00422.4776,E,0.000,253.786,241119,,E,A*1B
$GPGGA,121408.00,5200.0113,N,00422.4776,E,1,14,0.746,58.380,M,,M,0,*78
$GNGSA,A,3,2,5,6,7,9,16,23,30,65,67,74,75,76,81,,,,,,,1.662,0.746,1.484*12
$GPGSA,A,3,2,5,6,7,9,16,23,30,,,,,,,,,,,,,1.662,0.746,1.484*07
$GLGSA,A,3,65,67,74,75,76,81,,,,,,,,,,,,,,,1.662,0.746,1.484*2A
$BDGSA,A,3,,,,,,,,,,,,,,,,,,,,,1.662,0.746,1.484*2C
$QZGSA,A,3,,,,,,,,,,,,,,,,,,,,,1.662,0.746,1.484*21
$GPGSV,10,1,33,2,45,276,36,4,57,68,28,5,18,297,32,6,43,211,33*7C
$GPGSV,10,2,33,7,50,159,25,9,65,70,36,16,14,51,32,23,36,71,28*75
$GPGSV,10,3,33,26,8,26,18,29,8,336,25,30,22,187,29*4E
$GLGSV,10,4,33,65,36,83,17,66,66,321,30,67,18,284,30,74,46,79,25*55
$GLGSV,10,5,33,75,45,81,28,76,28,144,29,81,28,243,37,82,35,303,33*6E
$GLGSV,10,6,33,83,10,349,*66
$BDGSV,10,7,33,202,20,130,,203,5,,,204,5,,,205,32,180,*56
$BDGSV,10,8,33,206,17,51,,207,5,,,208,71,204,,209,45,208,*6D
$BDGSV,10,9,33,210,5,,,211,6,21,,212,5,,,213,5,,*50
$BDGSV,10,10,33,214,5,,*6A
$GPRMC,121408.00,A,5200.0113,N,00422.4776,E,0.000,253.786,241119,,E,A*14
$GPGGA,121409.00,5200.0113,N,00422.4776,E,1,14,0.746,58.380,M,,M,0,*79
$GNGSA,A,3,2,5,6,7,9,16,23,30,65,67,74,75,76,81,,,,,,,1.662,0.746,1.485*13
$GPGSA,A,3,2,5,6,7,9,16,23,30,,,,,,,,,,,,,1.662,0.746,1.485*06
$GLGSA,A,3,65,67,74,75,76,81,,,,,,,,,,,,,,,1.662,0.746,1.485*2B
$BDGSA,A,3,,,,,,,,,,,,,,,,,,,,,1.662,0.746,1.485*2D
$QZGSA,A,3,,,,,,,,,,,,,,,,,,,,,1.662,0.746,1.485*20
$GPGSV,10,1,33,2,45,276,27,4,57,68,31,5,18,297,39,6,43,211,33*7F
$GPGSV,10,2,33,7,50,159,26,9,65,70,39,16,14,51,31,23,36,71,24*76
$GPGSV,10,3,33,26,8,26,18,29,8,336,27,30,22,187,29*4C
$GLGSV,10,4,33,65,36,83,20,66,66,321,36,67,18,284,31,74,46,79,24*57
$GLGSV,10,5,33,75,45,81,31,76,28,144,31,81,28,243,37,82,35,303,28*65
$GLGSV,10,6,33,83,10,349,*66
$BDGSV,10,7,33,202,20,130,,203,5,,,204,5,,,205,32,180,*56
$BDGSV,10,8,33,206,17,51,,207,5,,,208,71,204,,209,45,208,*6D
$BDGSV,10,9,33,210,5,,,211,6,21,,212,5,,,213,5,,*50
$BDGSV,10,10,33,214,5,,*6A
$GPRMC,121409.00,A,5200.0113,N,00422.4776,E,0.000,253.786,241119,,E,A*15
$GPGGA,121410.00,5200.0113,N,00422.4776,E,1,13,0.769,58.380,M,,M,0,*7B
$GNGSA,A,3,2,5,6,9,16,23,30,65,67,74,75,76,81,,,,,,,,1.712,0.769,1.529*28
$GPGSA,A,3,2,5,6,9,16,23,30,,,,,,,,,,,,,,1.712,0.769,1.529*3D
$GLGSA,A,3,65,67,74,75,76,81,,,,,,,,,,,,,,,1.712,0.769,1.529*27
$BDGSA,A,3,,,,,,,,,,,,,,,,,,,,,1.712,0.769,1.529*21
$QZGSA,A,3,,,,,,,,,,,,,,,,,,,,,1.712,0.769,1.529*2C
$GPGSV,10,1,33,2,45,276,27,4,57,68,30,5,18,297,39,6,43,211,37*7A
$GPGSV,10,2,33,7,50,159,21,9,65,70,40,16,14,51,30,23,36,71,26*7C
$GPGSV,10,3,33,26,8,26,19,29,8,336,26,30,22,187,30*44
$GLGSV,10,4,33,65,36,83,21,66,66,321,38,67,18,284,34,74,46,79,27*5E
$GLGSV,10,5,33,75,45,81,33,76,28,144,31,81,28,243,38,82,35,303,28*68
$GLGSV,10,6,33,83,10,349,*66
$BDGSV,10,7,33,202,20,130,,203,5,,,204,5,,,205,32,180,*56
$BDGSV,10,8,33,206,17,51,,207,5,,,208,71,204,,209,45,208,*6D
$BDGSV,10,9,33,210,5,,,211,6,21,,212,5,,,213,5,,*50
$BDGSV,10,10,33,214,5,,*6A
$GPRMC,121410.00,A,5200.0113,N,00422.4776,E,0.000,253.786,241119,,E,A*1D
$GPGGA,121411.00,5200.0113,N,00422.4776,E,1,13,0.769,58.380,M,,M,0,*7A
$GNGSA,A,3,2,5,6,9,16,23,30,65,67,74,75,76,81,,,,,,,,1.712,0.769,1.530*20
$GPGSA,A,3,2,5,6,9,16,23,30,,,,,,,,,,,,,,1.712,0.769,1.530*35
$GLGSA,A,3,65,67,74,75,76,81,,,,,,,,,,,,,,,1.712,0.769,1.530*2F
$BDGSA,A,3,,,,,,,,,,,,,,,,,,,,,1.712,0.769,1.530*29
$QZGSA,A,3,,,,,,,,,,,,,,,,,,,,,1.712,0.769,1.530*24
$GPGSV,9,1,31,2,45,276,25,4,57,68,30,5,18,297,34,6,43,211,36*4E
$GPGSV,9,2,31,7,50,159,25,9,65,70,40,16,14,51,31,23,36,71,24*41
$GPGSV,9,3,31,26,8,26,19,29,8,336,29,30,22,187,32*73
$GLGSV,9,4,31,65,36,83,22,66,67,321,37,67,18,284,29,74,46,79,28*6A
$GLGSV,9,5,31,75,45,81,31,76,28,144,30,81,28,243,38,82,35,303,30*58
$GLGSV,9,6,31,83,10,349,*5C
$BDGSV,9,7,31,201,5,,,205,32,180,,206,17,51,,207,5,,*5B
$BDGSV,9,8,31,208,71,204,,209,45,208,,210,5,,,211,6,21,*60
$BDGSV,9,9,31,212,5,,,213,5,,,214,5,,*69
$GPRMC,121411.00,A,5200.0113,N,00422.4776,E,0.000,253.786,241119,,E,A*1C
$GPGGA,121412.00,5200.0113,N,00422.4776,E,1,14,0.717,58.380,M,,M,0,*77
$GNGSA,A,3,2,5,6,9,16,23,29,30,65,67,74,75,76,81,,,,,,,1.596,0.717,1.426*2A
$GPGSA,A,3,2,5,6,9,16,23,29,30,,,,,,,,,,,,,1.596,0.717,1.426*3F
$GLGSA,A,3,65,67,74,75,76,81,,,,,,,,,,,,,,,1.596,0.717,1.426*2E
$BDGSA,A,3,,,,,,,,,,,,,,,,,,,,,1.596,0.717,1.426*28
$QZGSA,A,3,,,,,,,,,,,,,,,,,,,,,1.596,0.717,1.426*25
$GPGSV,9,1,31,2,45,276,28,4,57,68,28,5,18,297,33,6,43,211,36*4D
$GPGSV,9,2,31,7,50,159,24,9,65,70,38,16,14,51,34,23,36,71,27*49
$GPGSV,9,3,31,26,8,26,22,29,8,336,28,30,22,187,27*7E
$GLGSV,9,4,31,65,36,83,20,66,67,321,35,67,18,284,33,74,46,79,28*61
$GLGSV,9,5,31,75,45,81,28,76,28,144,22,81,28,243,40,82,35,303,35*59
$GLGSV,9,6,31,83,10,349,*5C
$BDGSV,9,7,31,201,5,,,205,32,180,,206,17,51,,207,5,,*5B
$BDGSV,9,8,31,208,71,204,,209,45,208,,210,5,,,211,6,21,*60
$BDGSV,9,9,31,212,5,,,213,5,,,214,5,,*69
$GPRMC,121412.00,A,5200.0113,N,00422.4776,E,0.000,253.786,241119,,E,A*1F
$GPGGA,121413.00,5200.0113,N,00422.4776,E,1,14,0.717,58.380,M,,M,0,*76
$GNGSA,A,3,2,5,6,9,16,23,29,30,65,67,74,75,76,81,,,,,,,1.597,0.717,1.427*2A
$GPGSA,A,3,2,5,6,9,16,23,29,30,,,,,,,,,,,,,1.597,0.717,1.427*3F
$GLGSA,A,3,65,67,74,75,76,81,,,,,,,,,,,,,,,1.597,0.717,1.427*2E
$BDGSA,A,3,,,,,,,,,,,,,,,,,,,,,1.597,0.717,1.427*28
$QZGSA,A,3,,,,,,,,,,,,,,,,,,,,,1.597,0.717,1.427*25
$GPGSV,9,1,31,2,45,276,36,4,57,68,25,5,18,297,40,6,43,211,35*48
$GPGSV,9,2,31,7,50,159,20,9,65,70,35,16,14,51,35,23,36,71,30*47
$GPGSV,9,3,31,26,8,26,19,29,8,336,25,30,22,187,24*78
$GLGSV,9,4,31,65,36,83,19,66,67,321,33,67,18,284,34,74,46,79,30*63
$GLGSV,9,5,31,75,45,81,27,76,28,144,20,81,28,243,40,82,35,303,36*57
$GLGSV,9,6,31,83,10,349,*5C
$BDGSV,9,7,31,201,5,,,205,32,180,,206,17,51,,207,5,,*5B
$BDGSV,9,8,31,208,71,204,,209,45,208,,210,5,,,211,6,21,*60
$BDGSV,9,9,31,212,5,,,213,5,,,214,5,,*69
$GPRMC,121413.00,A,5200.0113,N,00422.4776,E,0.000,253.786,241119,,E,A*1E
$GPGGA,121414.00,5200.0113,N,00422.4776,E,1,15,0.705,58.380,M,,M,0,*73
$GNGSA,A,3,2,5,6,7,9,16,23,29,30,65,67,74,75,76,81,,,,,,1.570,0.705,1.402*10
$GPGSA,A,3,2,5,6,7,9,16,23,29,30,,,,,,,,,,,,1.570,0.705,1.402*05
$GLGSA,A,3,65,67,74,75,76,81,,,,,,,,,,,,,,,1.570,0.705,1.402*23
$BDGSA,A,3,,,,,,,,,,,,,,,,,,,,,1.570,0.705,1.402*25
$QZGSA,A,3,,,,,,,,,,,,,,,,,,,,,1.570,0.705,1.402*28
$GPGSV,9,1,31,2,45,276,37,4,57,68,25,5,18,297,40,6,43,211,34*48
$GPGSV,9,2,31,7,50,159,17,9,65,70,35,16,14,51,35,23,36,71,30*43
$GPGSV,9,3,31,26,8,26,20,29,8,336,25,30,22,187,22*74
$GLGSV,9,4,31,65,36,83,19,66,67,321,32,67,18,284,34,74,46,79,30*62
$GLGSV,9,5,31,75,45,81,26,76,28,144,18,81,28,243,38,82,35,303,36*52
$GLGSV,9,6,31,83,10,349,*5C
$BDGSV,9,7,31,201,5,,,205,32,180,,206,17,51,,207,5,,*5B
$BDGSV,9,8,31,208,70,204,,209,45,208,,210,5,,,211,6,21,*61
$BDGSV,9,9,31,212,5,,,213,5,,,214,5,,*69
$GPRMC,121414.00,A,5200.0113,N,00422.4776,E,0.000,253.786,241119,,E,A*19
$GPGGA,121415.00,5200.0113,N,00422.4776,E,1,14,0.717,58.380,M,,M,0,*70
$GNGSA,A,3,2,5,6,9,16,23,29,30,65,67,74,75,76,81,,,,,,,1.597,0.717,1.427*2A
$GPGSA,A,3,2,5,6,9,16,23,29,30,,,,,,,,,,,,,1.597,0.717,1.427*3F
$GLGSA,A,3,65,67,74,75,76,81,,,,,,,,,,,,,,,1.597,0.717,1.427*2E
$BDGSA,A,3,,,,,,,,,,,,,,,,,,,,,1.597,0.717,1.427*28
$QZGSA,A,3,,,,,,,,,,,,,,,,,,,,,1.597,0.717,1.427*25
$GPGSV,9,1,31,2,45,276,37,4,57,68,25,5,18,297,40,6,43,211,31*4D
$GPGSV,9,2,31,7,50,159,16,9,65,70,36,16,14,51,34,23,36,71,30*40
$GPGSV,9,3,31,26,8,26,21,29,8,336,23,30,22,187,23*72
$GLGSV,9,4,31,65,36,83,17,66,67,321,33,67,18,284,34,74,46,79,30*6D
$GLGSV,9,5,31,75,45,81,25,76,28,144,14,81,28,243,38,82,35,303,36*5D
$GLGSV,9,6,31,83,10,349,*5C
$BDGSV,9,7,31,201,5,,,205,32,180,,206,17,51,,207,5,,*5B
$BDGSV,9,8,31,208,70,204,,209,45,208,,210,5,,,211,6,21,*61
$BDGSV,9,9,31,212,5,,,213,5,,,214,5,,*69
$GPRMC,121415.00,A,5200.0113,N,00422.4776,E,0.000,253.786,241119,,E,A*18
$GPGGA,121416.00,5200.0113,N,00422.4776,E,1,14,0.717,58.380,M,,M,0,*73
$GNGSA,A,3,2,5,6,9,16,23,29,30,65,67,74,75,76,81,,,,,,,1.598,0.717,1.428*2A
$GPGSA,A,3,2,5,6,9,16,23,29,30,,,,,,,,,,,,,1.598,0.717,1.428*3F
$GLGSA,A,3,65,67,74,75,76,81,,,,,,,,,,,,,,,1.598,0.717,1.428*2E
$BDGSA,A,3,,,,,,,,,,,,,,,,,,,,,1.598,0.717,1.428*28
$QZGSA,A,3,,,,,,,,,,,,,,,,,,,,,1.598,0.717,1.428*25
$GPGSV,10,1,33,2,45,276,38,4,57,68,24,5,18,297,40,6,43,211,33*7B
$GPGSV,10,2,33,7,50,159,18,9,65,70,37,16,14,51,34,23,36,71,29*7D
$GPGSV,10,3,33,26,8,26,20,29,8,336,24,30,22,187,22*4F
$GLGSV,10,4,33,65,36,83,17,66,67,321,33,67,18,284,34,74,46,79,30*57
$GLGSV,10,5,33,75,45,81,27,76,28,144,13,81,28,243,38,82,35,303,35*61
$GLGSV,10,6,33,83,10,349,*66
$BDGSV,10,7,33,201,5,,,202,20,130,,203,5,,,204,5,,*5F
$BDGSV,10,8,33,206,17,51,,207,5,,,208,70,204,,209,45,208,*6C
$BDGSV,10,9,33,210,5,,,211,6,21,,212,5,,,213,5,,*50
$BDGSV,10,10,33,214,5,,*6A
$GPRMC,121416.00,A,5200.0113,N,00422.4776,E,0.000,253.786,241119,,E,A*1B
$GPGGA,121417.00,5200.0113,N,00422.4776,E,1,14,0.717,58.380,M,,M,0,*72
$GNGSA,A,3,2,5,6,9,16,23,29,30,65,67,74,75,76,81,,,,,,,1.598,0.717,1.428*2A
$GPGSA,A,3,2,5,6,9,16,23,29,30,,,,,,,,,,,,,1.598,0.717,1.428*3F
$GLGSA,A,3,65,67,74,75,76,81,,,,,,,,,,,,,,,1.598,0.717,1.428*2E
$BDGSA,A,3,,,,,,,,,,,,,,,,,,,,,1.598,0.717,1.428*28
$QZGSA,A,3,,,,,,,,,,,,,,,,,,,,,1.598,0.717,1.428*25
$GPGSV,10,1,33,2,45,276,36,4,57,68,22,5,18,297,40,6,43,211,35*75
$GPGSV,10,2,33,7,50,159,14,9,65,70,36,16,14,51,35,23,36,71,29*71
$GPGSV,10,3,33,26,8,26,20,29,8,336,28,30,22,187,21*40
$GLGSV,10,4,33,65,36,83,17,66,67,321,32,67,18,284,35,74,46,79,30*57
$GLGSV,10,5,33,75,45,81,25,76,28,144,14,81,28,243,38,82,35,303,34*65
$GLGSV,10,6,33,83,10,349,*66
$BDGSV,10,7,33,201,5,,,202,20,130,,203,5,,,204,5,,*5F
$BDGSV,10,8,33,206,17,51,,207,5,,,208,70,204,,209,45,208,*6C
$BDGSV,10,9,33,210,5,,,211,6,21,,212,5,,,213,5,,*50
$BDGSV,10,10,33,214,5,,*6A
$GPRMC,121417.00,A,5200.0113,N,00422.4776,E,0.000,253.786,241119,,E,A*1A
$GPGGA,121418.00,5200.0113,N,00422.4776,E,1,15,0.696,58.380,M,,M,0,*74
$GNGSA,A,3,2,5,6,9,16,23,26,29,30,65,67,74,75,76,81,,,,,,1.505,0.696,1.335*29
$GPGSA,A,3,2,5,6,9,16,23,26,29,30,,,,,,,,,,,,1.505,0.696,1.335*3C
$GLGSA,A,3,65,67,74,75,76,81,,,,,,,,,,,,,,,1.505,0.696,1.335*29
$BDGSA,A,3,,,,,,,,,,,,,,,,,,,,,1.505,0.696,1.335*2F
$QZGSA,A,3,,,,,,,,,,,,,,,,,,,,,1.505,0.696,1.335*22
$GPGSV,10,1,33,2,45,276,37,4,57,68,24,5,18,297,42,6,43,211,27*73
$GPGSV,10,2,33,7,50,159,22,9,65,70,37,16,14,51,32,23,36,71,25*7E
$GPGSV,10,3,33,26,8,26,20,29,8,336,28,30,22,187,18*4A
$GLGSV,10,4,33,65,36,83,17,66,67,321,34,67,18,284,34,74,46,79,27*56
$GLGSV,10,5,33,75,45,81,26,76,28,144,28,81,28,243,37,82,35,303,35*67
$GLGSV,10,6,33,83,10,349,*66
$BDGSV,10,7,33,201,5,,,202,20,130,,203,5,,,204,5,,*5F
$BDGSV,10,8,33,206,17,51,,207,5,,,208,70,204,,209,45,208,*6C
$BDGSV,10,9,33,210,5,,,211,6,21,,212,5,,,213,5,,*50
$BDGSV,10,10,33,214,5,,*6A
$GPRMC,121418.00,A,5200.0113,N,00422.4776,E,0.000,253.786,241119,,E,A*15
$GPGGA,121419.00,5200.0113,N,00422.4776,E,1,15,0.696,58.380,M,,M,0,*75
$GNGSA,A,3,2,5,6,9,16,23,26,29,30,65,67,74,75,76,81,,,,,,1.505,0.696,1.335*29
$GPGSA,A,3,2,5,6,9,16,23,26,29,30,,,,,,,,,,,,1.505,0.696,1.335*3C
$GLGSA,A,3,65,67,74,75,76,81,,,,,,,,,,,,,,,1.505,0.696,1.335*29
$BDGSA,A,3,,,,,,,,,,,,,,,,,,,,,1.505,0.696,1.335*2F
$QZGSA,A,3,,,,,,,,,,,,,,,,,,,,,1.505,0.696,1.335*22
$GPGSV,10,1,33,2,45,276,33,4,57,68,18,5,18,297,43,6,43,211,37*78
$GPGSV,10,2,33,7,50,159,19,9,65,70,32,16,14,51,33,23,36,71,26*71
$GPGSV,10,3,33,26,8,26,19,29,8,336,29,30,22,187,20*4A
$GLGSV,10,4,33,65,36,83,18,66,67,321,33,67,18,284,34,74,46,79,24*5D
$GLGSV,10,5,33,75,45,81,25,76,28,144,27,81,28,243,39,82,35,303,34*64
$GLGSV,10,6,33,83,10,349,*66
$BDGSV,10,7,33,201,5,,,202,20,130,,203,5,,,204,5,,*5F
$BDGSV,10,8,33,206,17,51,,207,5,,,208,70,204,,209,45,208,*6C
$BDGSV,10,9,33,210,5,,,211,6,21,,212,5,,,213,5,,*50
$BDGSV,10,10,33,214,5,,*6A
$GPRMC,121419.00,A,5200.0113,N,00422.4776,E,0.000,253.786,241119,,E,A*14
$GPGGA,121420.00,5200.0113,N,00422.4776,E,1,15,0.696,58.380,M,,M,0,*7F
$GNGSA,A,3,2,5,6,9,16,23,26,29,30,65,67,74,75,76,81,,,,,,1.506,0.696,1.335*2A
$GPGSA,A,3,2,5,6,9,16,23,26,29,30,,,,,,,,,,,,1.506,0.696,1.335*3F
$GLGSA,A,3,65,67,74,75,76,81,,,,,,,,,,,,,,,1.506,0.696,1.335*2A
$BDGSA,A,3,,,,,,,,,,,,,,,,,,,,,1.506,0.696,1.335*2C
$QZGSA,A,3,,,,,,,,,,,,,,,,,,,,,1.506,0.696,1.335*21
$GPGSV,10,1,33,2,45,276,35,4,57,68,22,5,18,297,43,6,43,211,27*76
$GPGSV,10,2,33,7,50,159,19,9,65,70,35,16,14,51,35,23,35,71,28*7D
$GPGSV,10,3,33,26,8,26,21,29,8,336,28,30,22,187,19*4A
$GLGSV,10,4,33,65,36,83,17,66,67,321,40,67,18,284,35,74,46,79,24*57
$GLGSV,10,5,33,75,45,81,18,76,28,144,23,81,28,243,35,82,35,303,35*63
$GLGSV,10,6,33,83,10,349,*66
$BDGSV,10,7,33,201,5,,,202,20,130,,203,5,,,204,5,,*5F
$BDGSV,10,8,33,206,17,51,,207,5,,,208,70,204,,209,45,208,*6C
$BDGSV,10,9,33,210,5,,,211,6,21,,212,5,,,213,5,,*50
$BDGSV,10,10,33,214,5,,*6A
$GPRMC,121420.00,A,5200.0113,N,00422.4776,E,0.000,253.786,241119,,E,A*1E
$GPGGA,121421.00,5200.0113,N,00422.4776,E,1,15,0.696,58.380,M,,M,0,*7E
$GNGSA,A,3,2,5,6,9,16,23,26,29,30,65,67,74,75,76,81,,,,,,1.506,0.696,1.335*2A
$GPGSA,A,3,2,5,6,9,16,23,26,29,30,,,,,,,,,,,,1.506,0.696,1.335*3F
$GLGSA,A,3,65,67,74,75,76,81,,,,,,,,,,,,,,,1.506,0.696,1.335*2A
$BDGSA,A,3,,,,,,,,,,,,,,,,,,,,,1.506,0.696,1.335*2C
$QZGSA,A,3,,,,,,,,,,,,,,,,,,,,,1.506,0.696,1.335*21
$GPGSV,9,1,31,2,45,276,38,4,57,68,22,5,18,297,43,6,43,211,24*42
$GPGSV,9,2,31,7,50,159,18,9,65,70,38,16,14,51,35,23,35,71,27*44
$GPGSV,9,3,31,26,8,26,22,29,8,336,27,30,22,187,18*7D
$GLGSV,9,4,31,65,36,83,15,66,67,321,41,67,18,284,36,74,46,79,23*6A
$GLGSV,9,5,31,75,45,81,19,76,28,144,24,81,28,243,34,82,35,303,34*5F
$GLGSV,9,6,31,83,10,349,*5C
$BDGSV,9,7,31,201,5,,,202,20,130,,203,5,,,204,5,,*65
$BDGSV,9,8,31,205,32,180,,209,45,208,,210,5,,,211,6,21,*65
$BDGSV,9,9,31,212,5,,,213,5,,,214,5,,*69
$GPRMC,121421.00,A,5200.0113,N,00422.4776,E,0.000,253.786,241119,,E,A*1F
$GPGGA,121422.00,5200.0113,N,00422.4776,E,1,15,0.696,58.380,M,,M,0,*7D
$GNGSA,A,3,2,5,6,9,16,23,26,29,30,65,67,74,75,76,81,,,,,,1.506,0.696,1.336*29
$GPGSA,A,3,2,5,6,9,16,23,26,29,30,,,,,,,,,,,,1.506,0.696,1.336*3C
$GLGSA,A,3,65,67,74,75,76,81,,,,,,,,,,,,,,,1.506,0.696,1.336*29
$BDGSA,A,3,,,,,,,,,,,,,,,,,,,,,1.506,0.696,1.336*2F
$QZGSA,A,3,,,,,,,,,,,,,,,,,,,,,1.506,0.696,1.336*22
$GPGSV,9,1,31,2,45,276,39,4,57,68,22,5,18,297,43,6,43,211,27*40
$GPGSV,9,2,31,7,50,159,19,9,65,70,38,16,14,51,35,23,35,71,26*44
$GPGSV,9,3,31,26,8,26,20,29,8,336,27,30,22,187,18*7F
$GLGSV,9,4,31,65,36,83,14,66,67,321,41,67,18,284,36,74,46,79,23*6B
$GLGSV,9,5,31,75,45,81,20,76,28,144,24,81,28,243,34,82,35,303,35*54
$GLGSV,9,6,31,83,10,349,*5C
$BDGSV,9,7,31,201,5,,,202,20,130,,203,5,,,204,5,,*65
$BDGSV,9,8,31,205,32,180,,209,45,208,,210,5,,,211,6,21,*65
$BDGSV,9,9,31,212,5,,,213,5,,,214,5,,*69
$GPRMC,121422.00,A,5200.0113,N,00422.4776,E,0.000,253.786,241119,,E,A*1C
$GPGGA,121423.00,5200.0113,N,00422.4776,E,1,15,0.696,58.380,M,,M,0,*7C
$GNGSA,A,3,2,5,6,9,16,23,26,29,30,65,67,74,75,76,81,,,,,,1.506,0.696,1.336*29
$GPGSA,A,3,2,5,6,9,16,23,26,29,30,,,,,,,,,,,,1.506,0.696,1.336*3C
$GLGSA,A,3,65,67,74,75,76,81,,,,,,,,,,,,,,,1.506,0.696,1.336*29
$BDGSA,A,3,,,,,,,,,,,,,,,,,,,,,1.506,0.696,1.336*2F
$QZGSA,A,3,,,,,,,,,,,,,,,,,,,,,1.506,0.696,1.336*22
$GPGSV,9,1,31,2,45,276,39,4,57,68,22,5,18,297,43,6,43,211,27*40
$GPGSV,9,2,31,7,50,159,18,9,65,70,38,16,14,51,35,23,35,71,27*44
$GPGSV,9,3,31,26,8,26,20,29,8,336,25,30,22,187,19*7C
$GLGSV,9,4,31,65,36,83,16,66,67,321,41,67,18,284,36,74,46,79,24*6E
$GLGSV,9,5,31,75,45,81,21,76,28,144,26,81,28,243,34,82,35,303,36*54
$GLGSV,9,6,31,83,10,349,*5C
$BDGSV,9,7,31,201,5,,,202,20,130,,203,5,,,204,5,,*65
$BDGSV,9,8,31,205,32,180,,209,45,208,,210,5,,,211,6,21,*65
$BDGSV,9,9,31,212,5,,,213,5,,,214,5,,*69
$GPRMC,121423.00,A,5200.0113,N,00422.4776,E,0.000,253.786,241119,,E,A*1D
$GPGGA,121424.00,5200.0113,N,00422.4776,E,1,15,0.696,58.380,M,,M,0,*7B
$GNGSA,A,3,2,5,6,9,16,23,26,29,30,65,67,74,75,76,81,,,,,,1.507,0.696,1.336*28
$GPGSA,A,3,2,5,6,9,16,23,26,29,30,,,,,,,,,,,,1.507,0.696,1.336*3D
$GLGSA,A,3,65,67,74,75,76,81,,,,,,,,,,,,,,,1.507,0.696,1.336*28
$BDGSA,A,3,,,,,,,,,,,,,,,,,,,,,1.507,0.696,1.336*2E
$QZGSA,A,3,,,,,,,,,,,,,,,,,,,,,1.507,0.696,1.336*23
$GPGSV,9,1,31,2,45,276,39,4,57,68,25,5,18,297,43,6,43,211,29*49
$GPGSV,9,2,31,7,50,159,17,9,65,70,38,16,14,51,35,23,35,71,27*4B
$GPGSV,9,3,31,26,8,26,21,29,9,336,25,30,22,187,19*7C
$GLGSV,9,4,31,65,36,83,17,66,67,321,40,67,18,284,36,74,46,79,24*6E
$GLGSV,9,5,31,75,45,81,20,76,28,144,27,81,28,243,35,82,35,303,35*56
$GLGSV,9,6,31,83,10,349,*5C
$BDGSV,9,7,31,201,5,,,202,20,130,,203,5,,,204,5,,*65
$BDGSV,9,8,31,205,32,180,,209,45,208,,210,5,,,211,6,21,*65
$BDGSV,9,9,31,212,5,,,213,5,,,214,5,,*69
$GPRMC,121424.00,A,5200.0113,N,00422.4776,E,0.000,253.786,241119,,E,A*1A
$GPGGA,121425.00,5200.0113,N,00422.4776,E,1,15,0.696,58.380,M,,M,0,*7A
$GNGSA,A,3,2,5,6,9,16,23,26,29,30,65,67,74,75,76,81,,,,,,1.507,0.696,1.336*28
$GPGSA,A,3,2,5,6,9,16,23,26,29,30,,,,,,,,,,,,1.507,0.696,1.336*3D
$GLGSA,A,3,65,67,74,75,76,81,,,,,,,,,,,,,,,1.507,0.696,1.336*28
$BDGSA,A,3,,,,,,,,,,,,,,,,,,,,,1.507,0.696,1.336*2E
$QZGSA,A,3,,,,,,,,,,,,,,,,,,,,,1.507,0.696,1.336*23
$GPGSV,9,1,31,2,45,276,39,4,57,68,25,5,18,297,43,6,43,211,30*41
$GPGSV,9,2,31,7,50,159,16,9,65,70,38,16,14,51,36,23,35,71,28*46
$GPGSV,9,3,31,26,8,26,21,29,9,336,24,30,22,187,22*75
$GLGSV,9,4,31,65,36,83,18,66,67,322,40,67,18,284,35,74,46,79,25*60
$GLGSV,9,5,31,75,45,81,20,76,28,144,29,81,28,243,35,82,35,303,35*58
$GLGSV,9,6,31,83,10,349,*5C
$BDGSV,9,7,31,201,5,,,202,20,130,,203,5,,,204,5,,*65
$BDGSV,9,8,31,205,32,180,,209,45,208,,210,5,,,211,6,21,*65
$BDGSV,9,9,31,212,5,,,213,5,,,214,5,,*69
$GPRMC,121425.00,A,5200.0113,N,00422.4776,E,0.000,253.786,241119,,E,A*1B
$GPGGA,121426.00,5200.0113,N,00422.4776,E,1,15,0.696,58.380,M,,M,0,*79
$GNGSA,A,3,2,5,6,9,16,23,26,29,30,65,67,74,75,76,81,,,,,,1.507,0.696,1.337*29
$GPGSA,A,3,2,5,6,9,16,23,26,29,30,,,,,,,,,,,,1.507,0.696,1.337*3C
$GLGSA,A,3,65,67,74,75,76,81,,,,,,,,,,,,,,,1.507,0.696,1.337*29
$BDGSA,A,3,,,,,,,,,,,,,,,,,,,,,1.507,0.696,1.337*2F
$QZGSA,A,3,,,,,,,,,,,,,,,,,,,,,1.507,0.696,1.337*22
$GPGSV,10,1,33,2,45,276,38,4,57,68,26,5,18,297,42,6,43,211,32*7A
$GPGSV,10,2,33,7,50,159,15,9,65,70,38,16,14,51,36,23,35,71,26*71
$GPGSV,10,3,33,26,8,26,22,29,9,336,24,30,22,187,19*44
$GLGSV,10,4,33,65,36,83,19,66,67,322,39,67,18,284,35,74,46,79,25*55
$GLGSV,10,5,33,75,45,81,20,76,28,144,29,81,28,243,35,82,35,303,33*64
$GLGSV,10,6,33,83,10,349,*66
$BDGSV,10,7,33,201,5,,,202,20,130,,203,5,,,204,5,,*5F
$BDGSV,10,8,33,205,32,180,,206,17,51,,207,5,,,208,70,204,*63
$BDGSV,10,9,33,210,5,,,211,6,21,,212,5,,,213,5,,*50
$BDGSV,10,10,33,214,5,,*6A
$GPRMC,121426.00,A,5200.0113,N,00422.4776,E,0.000,253.786,241119,,E,A*18
$GPGGA,121427.00,5200.0113,N,00422.4776,E,1,15,0.696,58.380,M,,M,0,*78
$GNGSA,A,3,2,5,6,9,16,23,26,29,30,65,67,74,75,76,81,,,,,,1.507,0.696,1.337*29
$GPGSA,A,3,2,5,6,9,16,23,26,29,30,,,,,,,,,,,,1.507,0.696,1.337*3C
$GLGSA,A,3,65,67,74,75,76,81,,,,,,,,,,,,,,,1.507,0.696,1.337*29
$BDGSA,A,3,,,,,,,,,,,,,,,,,,,,,1.507,0.696,1.337*2F
$QZGSA,A,3,,,,,,,,,,,,,,,,,,,,,1.507,0.696,1.337*22
$GPGSV,10,1,33,2,45,276,38,4,57,68,24,5,18,297,34,6,43,211,31*7A
$GPGSV,10,2,33,7,50,159,17,9,65,70,38,16,14,51,36,23,35,71,31*75
$GPGSV,10,3,33,26,8,26,21,29,9,336,26,30,22,187,20*4F
$GLGSV,10,4,33,65,36,83,21,66,67,322,34,67,18,284,35,74,46,79,26*50
$GLGSV,10,5,33,75,45,81,26,76,28,144,25,81,28,243,36,82,35,303,37*69
$GLGSV,10,6,33,83,10,349,*66
$BDGSV,10,7,33,201,5,,,202,20,130,,203,5,,,204,5,,*5F
$BDGSV,10,8,33,205,32,180,,206,17,51,,207,5,,,208,70,204,*63
$BDGSV,10,9,33,210,5,,,211,6,21,,212,5,,,213,5,,*50
$BDGSV,10,10,33,214,5,,*6A
$GPRMC,121427.00,A,5200.0113,N,00422.4776,E,0.000,253.786,241119,,E,A*19
$GPGGA,121428.00,5200.0108,N,00422.4771,E,1,15,0.696,58.616,M,,M,0,*70
$GNGSA,A,3,2,5,6,9,16,23,26,29,30,65,67,74,75,76,81,,,,,,1.508,0.696,1.337*26
$GPGSA,A,3,2,5,6,9,16,23,26,29,30,,,,,,,,,,,,1.508,0.696,1.337*33
$GLGSA,A,3,65,67,74,75,76,81,,,,,,,,,,,,,,,1.508,0.696,1.337*26
$BDGSA,A,3,,,,,,,,,,,,,,,,,,,,,1.508,0.696,1.337*20
$QZGSA,A,3,,,,,,,,,,,,,,,,,,,,,1.508,0.696,1.337*2D
$GPGSV,10,1,33,2,45,276,31,4,57,68,26,5,18,297,36,6,43,211,41*74
$GPGSV,10,2,33,7,50,159,18,9,65,70,37,16,14,51,35,23,35,71,29*7F
$GPGSV,10,3,33,26,8,26,17,29,9,336,23,30,22,187,28*47
$GLGSV,10,4,33,65,36,83,21,66,67,322,39,67,18,284,34,74,46,79,31*5A
$GLGSV,10,5,33,75,45,81,29,76,28,144,25,81,28,243,40,82,35,303,30*60
$GLGSV,10,6,33,83,10,349,*66
$BDGSV,10,7,33,201,5,,,202,20,130,,203,5,,,204,5,,*5F
$BDGSV,10,8,33,205,32,180,,206,17,51,,207,5,,,208,70,204,*63
$BDGSV,10,9,33,210,5,,,211,6,21,,212,5,,,213,5,,*50
$BDGSV,10,10,33,214,5,,*6A
$GPRMC,121428.00,A,5200.0108,N,00422.4771,E,1.249,253.786,241119,,E,A*15
$GPGGA,121429.00,5200.0103,N,00422.4762,E,1,15,0.696,58.327,M,,M,0,*7F
$GNGSA,A,3,2,5,6,9,16,23,26,29,30,65,67,74,75,76,81,,,,,,1.508,0.696,1.338*29
$GPGSA,A,3,2,5,6,9,16,23,26,29,30,,,,,,,,,,,,1.508,0.696,1.338*3C
$GLGSA,A,3,65,67,74,75,76,81,,,,,,,,,,,,,,,1.508,0.696,1.338*29
$BDGSA,A,3,,,,,,,,,,,,,,,,,,,,,1.508,0.696,1.338*2F
$QZGSA,A,3,,,,,,,,,,,,,,,,,,,,,1.508,0.696,1.338*22
$GPGSV,10,1,33,2,45,276,33,4,57,68,29,5,18,297,37,6,43,211,39*77
$GPGSV,10,2,33,7,50,159,19,9,65,70,33,16,14,51,32,23,35,71,25*71
$GPGSV,10,3,33,26,8,26,19,29,9,336,25,30,22,187,36*40
$GLGSV,10,4,33,65,36,83,22,66,67,322,33,67,18,284,33,74,46,79,26*52
$GLGSV,10,5,33,75,45,81,26,76,28,144,29,81,28,243,39,82,35,303,29*65
$GLGSV,10,6,33,83,10,349,*66
$BDGSV,10,7,33,201,5,,,202,20,130,,203,5,,,204,5,,*5F
$BDGSV,10,8,33,205,32,180,,206,17,51,,207,5,,,208,70,204,*63
$BDGSV,10,9,33,210,5,,,211,6,21,,212,5,,,213,5,,*50
$BDGSV,10,10,33,214,5,,*6A
$GPRMC,121429.00,A,5200.0103,N,00422.4762,E,1.853,253.786,241119,,E,A*1C
$GPGGA,121430.00,5200.0099,N,00422.4751,E,1,15,0.696,58.163,M,,M,0,*77
$GNGSA,A,3,2,5,6,9,16,23,26,29,30,65,67,74,75,76,81,,,,,,1.508,0.696,1.338*29
$GPGSA,A,3,2,5,6,9,16,23,26,29,30,,,,,,,,,,,,1.508,0.696,1.338*3C
$GLGSA,A,3,65,67,74,75,76,81,,,,,,,,,,,,,,,1.508,0.696,1.338*29
$BDGSA,A,3,,,,,,,,,,,,,,,,,,,,,1.508,0.696,1.338*2F
$QZGSA,A,3,,,,,,,,,,,,,,,,,,,,,1.508,0.696,1.338*22
$GPGSV,10,1,33,2,45,276,28,4,57,68,28,5,18,297,34,6,43,211,40*71
$GPGSV,10,2,33,7,50,159,19,9,65,70,33,16,14,51,29,23,35,71,25*7B
$GPGSV,10,3,33,26,8,26,18,29,9,336,26,30,22,187,42*41
$GLGSV,10,4,33,65,36,83,24,66,67,322,32,67,18,284,28,74,46,79,25*5C
$GLGSV,10,5,33,75,45,81,30,76,28,144,26,81,28,243,36,82,35,303,29*62
$GLGSV,10,6,33,83,10,349,*66
$BDGSV,10,7,33,201,5,,,202,20,130,,203,5,,,204,5,,*5F
$BDGSV,10,8,33,205,32,180,,206,17,51,,207,5,,,208,70,204,*63
$BDGSV,10,9,33,210,5,,,211,6,21,,212,5,,,213,5,,*50
$BDGSV,10,10,33,214,5,,*6A
$GPRMC,121430.00,A,5200.0099,N,00422.4751,E,2.374,270.335,241119,,E,A*16
$GPGGA,121431.00,5200.0086,N,00422.4738,E,1,14,0.717,57.106,M,,M,0,*72
$GNGSA,A,3,2,5,6,9,16,23,29,30,65,67,74,75,76,81,,,,,,,1.602,0.717,1.433*20
$GPGSA,A,3,2,5,6,9,16,23,29,30,,,,,,,,,,,,,1.602,0.717,1.433*35
$GLGSA,A,3,65,67,74,75,76,81,,,,,,,,,,,,,,,1.602,0.717,1.433*24
$BDGSA,A,3,,,,,,,,,,,,,,,,,,,,,1.602,0.717,1.433*22
$QZGSA,A,3,,,,,,,,,,,,,,,,,,,,,1.602,0.717,1.433*2F
$GPGSV,9,1,32,2,45,276,29,4,57,68,29,5,18,297,32,6,43,211,38*41
$GPGSV,9,2,32,7,50,159,20,9,65,70,37,16,14,51,25,23,35,71,26*43
$GPGSV,9,3,32,26,8,26,17,29,9,336,27,30,22,187,42*76
$GLGSV,9,4,32,65,36,83,24,66,67,322,32,67,18,284,29,74,46,79,29*68
$GLGSV,9,5,32,75,45,81,29,76,28,144,25,81,28,243,33,82,35,303,27*5B
$GLGSV,9,6,32,83,10,349,*5F
$BDGSV,9,7,32,201,5,,,202,20,130,,203,5,,,204,5,,*66
$BDGSV,9,8,32,205,32,180,,206,17,51,,207,5,,,208,70,204,*5A
$BDGSV,9,9,32,209,45,208,,211,6,21,,213,5,,,214,5,,*69
$GPRMC,121431.00,A,5200.0086,N,00422.4738,E,2.522,263.103,241119,,E,A*16
$GPGGA,121432.00,5200.0075,N,00422.4728,E,1,15,0.705,56.293,M,,M,0,*70
$GNGSA,A,3,2,5,6,7,9,16,23,29,30,65,67,74,75,76,81,,,,,,1.575,0.705,1.408*1F
$GPGSA,A,3,2,5,6,7,9,16,23,29,30,,,,,,,,,,,,1.575,0.705,1.408*0A
$GLGSA,A,3,65,67,74,75,76,81,,,,,,,,,,,,,,,1.575,0.705,1.408*2C
$BDGSA,A,3,,,,,,,,,,,,,,,,,,,,,1.575,0.705,1.408*2A
$QZGSA,A,3,,,,,,,,,,,,,,,,,,,,,1.575,0.705,1.408*27
$GPGSV,9,1,32,2,45,276,36,4,57,68,31,5,18,297,31,6,43,211,37*4A
$GPGSV,9,2,32,7,50,159,23,9,65,70,34,16,14,51,26,23,35,71,26*40
$GPGSV,9,3,32,26,8,26,15,29,9,336,26,30,22,187,41*76
$GLGSV,9,4,32,65,36,83,24,66,67,322,32,67,18,284,28,74,46,79,27*67
$GLGSV,9,5,32,75,45,81,27,76,28,144,24,81,28,243,34,82,35,303,30*55
$GLGSV,9,6,32,83,10,349,*5F
$BDGSV,9,7,32,201,5,,,202,20,130,,203,5,,,204,5,,*66
$BDGSV,9,8,32,205,32,180,,206,17,51,,207,5,,,208,70,204,*5A
$BDGSV,9,9,32,209,45,208,,211,6,21,,213,5,,,214,5,,*69
$GPRMC,121432.00,A,5200.0075,N,00422.4728,E,2.095,258.526,241119,,E,A*1A
$GPGGA,121433.00,5200.0068,N,00422.4719,E,1,15,0.705,56.047,M,,M,0,*74
$GNGSA,A,3,2,5,6,7,9,16,23,29,30,65,67,74,75,76,81,,,,,,1.575,0.705,1.408*1F
$GPGSA,A,3,2,5,6,7,9,16,23,29,30,,,,,,,,,,,,1.575,0.705,1.408*0A
$GLGSA,A,3,65,67,74,75,76,81,,,,,,,,,,,,,,,1.575,0.705,1.408*2C
$BDGSA,A,3,,,,,,,,,,,,,,,,,,,,,1.575,0.705,1.408*2A
$QZGSA,A,3,,,,,,,,,,,,,,,,,,,,,1.575,0.705,1.408*27
$GPGSV,9,1,32,2,45,276,36,4,57,68,26,5,18,297,32,6,43,211,39*41
$GPGSV,9,2,32,7,50,159,31,9,65,70,34,16,14,51,29,23,35,71,25*4F
$GPGSV,9,3,32,26,8,26,15,29,9,336,29,30,22,187,39*76
$GLGSV,9,4,32,65,36,83,23,66,67,322,35,67,18,284,26,74,46,79,27*69
$GLGSV,9,5,32,75,45,81,30,76,28,144,24,81,28,243,33,82,35,303,29*5C
$GLGSV,9,6,32,83,10,349,*5F
$BDGSV,9,7,32,201,5,,,202,20,130,,203,5,,,204,5,,*66
$BDGSV,9,8,32,205,32,180,,206,17,51,,207,5,,,208,70,204,*5A
$BDGSV,9,9,32,209,45,208,,211,6,21,,213,5,,,214,5,,*69
$GPRMC,121433.00,A,5200.0068,N,00422.4719,E,1.774,255.978,241119,,E,A*14
$GPGGA,121434.00,5200.0062,N,00422.4710,E,1,15,0.705,55.719,M,,M,0,*7F
$GNGSA,A,3,2,5,6,7,9,16,23,29,30,65,67,74,75,76,81,,,,,,1.575,0.705,1.408*1F
$GPGSA,A,3,2,5,6,7,9,16,23,29,30,,,,,,,,,,,,1.575,0.705,1.408*0A
$GLGSA,A,3,65,67,74,75,76,81,,,,,,,,,,,,,,,1.575,0.705,1.408*2C
$BDGSA,A,3,,,,,,,,,,,,,,,,,,,,,1.575,0.705,1.408*2A
$QZGSA,A,3,,,,,,,,,,,,,,,,,,,,,1.575,0.705,1.408*27
$GPGSV,9,1,32,2,45,276,36,4,57,68,25,5,18,297,29,6,43,211,38*49
$GPGSV,9,2,32,7,50,159,38,9,65,70,33,16,14,51,23,23,35,71,28*46
$GPGSV,9,3,32,26,8,26,15,29,9,336,28,30,22,187,38*76
$GLGSV,9,4,32,65,36,83,25,66,67,322,35,67,18,284,31,74,46,79,28*66
$GLGSV,9,5,32,75,45,81,27,76,28,144,28,81,28,243,33,82,35,303,31*5F
$GLGSV,9,6,32,83,10,349,*5F
$BDGSV,9,7,32,201,5,,,202,20,130,,203,5,,,204,5,,*66
$BDGSV,9,8,32,205,32,180,,206,17,51,,207,5,,,208,70,204,*5A
$BDGSV,9,9,32,209,45,208,,211,6,21,,213,5,,,214,5,,*69
$GPRMC,121434.00,A,5200.0062,N,00422.4710,E,1.894,261.171,241119,,E,A*17
$GPGGA,121435.00,5200.0051,N,00422.4699,E,1,15,0.705,55.438,M,,M,0,*7E
$GNGSA,A,3,2,5,6,7,9,16,23,29,30,65,67,74,75,76,81,,,,,,1.575,0.705,1.409*1E
$GPGSA,A,3,2,5,6,7,9,16,23,29,30,,,,,,,,,,,,1.575,0.705,1.409*0B
$GLGSA,A,3,65,67,74,75,76,81,,,,,,,,,,,,,,,1.575,0.705,1.409*2D
$BDGSA,A,3,,,,,,,,,,,,,,,,,,,,,1.575,0.705,1.409*2B
$QZGSA,A,3,,,,,,,,,,,,,,,,,,,,,1.575,0.705,1.409*26
$GPGSV,9,1,32,2,45,276,33,4,57,68,26,5,18,297,35,6,43,211,39*43
$GPGSV,9,2,32,7,50,159,45,9,65,70,31,16,14,51,27,23,35,71,29*4B
$GPGSV,9,3,32,26,8,26,17,29,9,336,32,30,22,187,40*70
$GLGSV,9,4,32,65,35,83,23,66,67,322,31,67,18,284,36,74,46,79,23*6B
$GLGSV,9,5,32,75,45,81,28,76,28,144,26,81,28,243,39,82,35,303,29*5D
$GLGSV,9,6,32,83,10,349,*5F
$BDGSV,9,7,32,201,5,,,202,20,130,,203,5,,,204,5,,*66
$BDGSV,9,8,32,205,32,180,,206,17,51,,207,5,,,208,70,204,*5A
$BDGSV,9,9,32,209,45,208,,211,6,21,,213,5,,,214,5,,*69
$GPRMC,121435.00,A,5200.0051,N,00422.4699,E,2.377,266.957,241119,,E,A*18
$GPGGA,121436.00,5200.0044,N,00422.4686,E,1,15,0.705,54.981,M,,M,0,*79
$GNGSA,A,3,2,5,6,7,9,16,23,29,30,65,67,74,75,76,81,,,,,,1.576,0.705,1.409*1D
$GPGSA,A,3,2,5,6,7,9,16,23,29,30,,,,,,,,,,,,1.576,0.705,1.409*08
$GLGSA,A,3,65,67,74,75,76,81,,,,,,,,,,,,,,,1.576,0.705,1.409*2E
$BDGSA,A,3,,,,,,,,,,,,,,,,,,,,,1.576,0.705,1.409*28
$QZGSA,A,3,,,,,,,,,,,,,,,,,,,,,1.576,0.705,1.409*25
$GPGSV,10,1,33,2,45,276,34,4,57,68,29,5,18,297,32,6,43,211,39*75
$GPGSV,10,2,33,7,50,159,43,9,65,70,34,16,14,51,25,23,35,71,28*72
$GPGSV,10,3,33,26,8,26,18,29,9,336,31,30,22,187,35*47
$GLGSV,10,4,33,65,35,83,24,66,67,322,31,67,18,284,33,74,46,79,28*5B
$GLGSV,10,5,33,75,45,81,29,76,28,143,29,81,28,243,41,82,35,303,29*62
$GLGSV,10,6,33,83,10,349,*66
$BDGSV,10,7,33,201,5,,,202,20,130,,203,5,,,204,5,,*5F
$BDGSV,10,8,33,205,32,180,,206,17,51,,207,5,,,208,70,204,*63
$BDGSV,10,9,33,209,45,208,,210,5,,,211,6,21,,212,5,,*55
$BDGSV,10,10,33,214,5,,*6A
$GPRMC,121436.00,A,5200.0044,N,00422.4686,E,2.090,278.291,241119,,E,A*15
$GPGGA,121437.00,5200.0039,N,00422.4676,E,1,15,0.705,54.774,M,,M,0,*79
$GNGSA,A,3,2,5,6,7,9,16,23,29,30,65,67,74,75,76,81,,,,,,1.576,0.705,1.409*1D
$GPGSA,A,3,2,5,6,7,9,16,23,29,30,,,,,,,,,,,,1.576,0.705,1.409*08
$GLGSA,A,3,65,67,74,75,76,81,,,,,,,,,,,,,,,1.576,0.705,1.409*2E
$BDGSA,A,3,,,,,,,,,,,,,,,,,,,,,1.576,0.705,1.409*28
$QZGSA,A,3,,,,,,,,,,,,,,,,,,,,,1.576,0.705,1.409*25
$GPGSV,10,1,33,2,45,276,34,4,57,68,29,5,18,297,36,6,43,211,36*7E
$GPGSV,10,2,33,7,50,159,42,9,65,70,34,16,14,51,25,23,35,71,28*73
$GPGSV,10,3,33,26,8,26,19,29,9,336,31,30,22,187,26*44
$GLGSV,10,4,33,65,35,83,24,66,67,322,37,67,18,284,32,74,46,79,27*53
$GLGSV,10,5,33,75,45,81,27,76,28,143,27,81,28,243,39,82,35,303,31*64
$GLGSV,10,6,33,83,10,349,*66
$BDGSV,10,7,33,201,5,,,202,20,130,,203,5,,,204,5,,*5F
$BDGSV,10,8,33,205,32,180,,206,17,51,,207,5,,,208,70,204,*63
$BDGSV,10,9,33,209,45,208,,210,5,,,211,6,21,,212,5,,*55
$BDGSV,10,10,33,214,5,,*6A
$GPRMC,121437.00,A,5200.0039,N,00422.4676,E,2.682,264.800,241119,,E,A*1B
$GPGGA,121438.00,5200.0032,N,00422.4669,E,1,15,0.705,54.391,M,,M,0,*7C
$GNGSA,A,3,2,5,6,7,9,16,23,29,30,65,67,74,75,76,81,,,,,,1.576,0.705,1.410*15
$GPGSA,A,3,2,5,6,7,9,16,23,29,30,,,,,,,,,,,,1.576,0.705,1.410*00
$GLGSA,A,3,65,67,74,75,76,81,,,,,,,,,,,,,,,1.576,0.705,1.410*26
$BDGSA,A,3,,,,,,,,,,,,,,,,,,,,,1.576,0.705,1.410*20
$QZGSA,A,3,,,,,,,,,,,,,,,,,,,,,1.576,0.705,1.410*2D
$GPGSV,10,1,33,2,45,276,36,4,57,68,26,5,18,297,35,6,43,211,38*7E
$GPGSV,10,2,33,7,50,159,42,9,65,70,35,16,14,51,29,23,35,71,32*75
$GPGSV,10,3,33,26,8,26,20,29,9,336,32,30,22,187,32*48
$GLGSV,10,4,33,65,35,83,26,66,67,322,30,67,18,284,37,74,46,79,25*51
$GLGSV,10,5,33,75,45,81,27,76,28,143,24,81,28,243,38,82,35,303,28*6E
$GLGSV,10,6,33,83,10,349,*66
$BDGSV,10,7,33,201,5,,,202,20,130,,203,5,,,204,5,,*5F
$BDGSV,10,8,33,205,32,180,,206,17,51,,207,5,,,208,70,204,*63
$BDGSV,10,9,33,209,45,208,,210,5,,,211,6,21,,212,5,,*55
$BDGSV,10,10,33,214,5,,*6A
$GPRMC,121438.00,A,5200.0032,N,00422.4669,E,1.959,273.337,241119,,E,A*12
$GPGGA,121439.00,5200.0029,N,00422.4664,E,1,15,0.705,53.888,M,,M,0,*7E
$GNGSA,A,3,2,5,6,7,9,16,23,29,30,65,67,74,75,76,81,,,,,,1.576,0.705,1.410*15
$GPGSA,A,3,2,5,6,7,9,16,23,29,30,,,,,,,,,,,,1.576,0.705,1.410*00
$GLGSA,A,3,65,67,74,75,76,81,,,,,,,,,,,,,,,1.576,0.705,1.410*26
$BDGSA,A,3,,,,,,,,,,,,,,,,,,,,,1.576,0.705,1.410*20
$QZGSA,A,3,,,,,,,,,,,,,,,,,,,,,1.576,0.705,1.410*2D
$GPGSV,10,1,33,2,45,276,30,4,57,68,30,5,18,297,36,6,43,211,40*73
$GPGSV,10,2,33,7,50,159,44,9,65,70,34,16,14,51,25,23,35,71,26*7B
$GPGSV,10,3,33,26,8,26,20,29,9,336,36,30,22,187,39*47
$GLGSV,10,4,33,65,35,83,25,66,67,322,30,67,18,284,35,74,46,79,24*51
$GLGSV,10,5,33,75,45,81,26,76,28,143,26,81,28,243,35,82,35,303,30*69
$GLGSV,10,6,33,83,10,349,*66
$BDGSV,10,7,33,201,5,,,202,20,130,,203,5,,,204,5,,*5F
$BDGSV,10,8,33,205,32,180,,206,17,51,,207,5,,,208,70,204,*63
$BDGSV,10,9,33,209,45,208,,210,5,,,211,6,21,,212,5,,*55
$BDGSV,10,10,33,214,5,,*6A
$GPRMC,121439.00,A,5200.0029,N,00422.4664,E,1.794,272.954,241119,,E,A*15
$GPGGA,121440.00,5200.0030,N,00422.4654,E,1,15,0.705,53.766,M,,M,0,*74
$GNGSA,A,3,2,5,6,7,9,16,23,29,30,65,67,74,75,76,81,,,,,,1.577,0.705,1.410*14
$GPGSA,A,3,2,5,6,7,9,16,23,29,30,,,,,,,,,,,,1.577,0.705,1.410*01
$GLGSA,A,3,65,67,74,75,76,81,,,,,,,,,,,,,,,1.577,0.705,1.410*27
$BDGSA,A,3,,,,,,,,,,,,,,,,,,,,,1.577,0.705,1.410*21
$QZGSA,A,3,,,,,,,,,,,,,,,,,,,,,1.577,0.705,1.410*2C
$GPGSV,10,1,33,2,45,276,36,4,57,68,28,5,18,297,33,6,43,211,39*77
$GPGSV,10,2,33,7,50,159,43,9,65,70,33,16,14,51,23,23,35,71,26*7D
$GPGSV,10,3,33,26,8,26,20,29,9,336,36,30,22,187,40*49
$GLGSV,10,4,33,65,35,83,25,66,67,322,34,67,18,284,31,74,46,79,27*52
$GLGSV,10,5,33,75,45,81,24,76,28,143,23,81,28,243,34,82,35,303,32*6D
$GLGSV,10,6,33,83,10,349,*66
$BDGSV,10,7,33,201,5,,,202,20,130,,203,5,,,204,5,,*5F
$BDGSV,10,8,33,205,32,180,,206,17,51,,207,5,,,208,70,204,*63
$BDGSV,10,9,33,209,45,208,,210,5,,,211,6,21,,212,5,,*55
$BDGSV,10,10,33,214,5,,*6A
$GPRMC,121440.00,A,5200.0030,N,00422.4654,E,1.965,272.431,241119,,E,A*1E
$GPGGA,121441.00,5200.0027,N,00422.4643,E,1,15,0.705,53.291,M,,M,0,*78
$GNGSA,A,3,2,5,6,7,9,16,23,29,30,65,67,74,75,76,81,,,,,,1.577,0.705,1.410*14
$GPGSA,A,3,2,5,6,7,9,16,23,29,30,,,,,,,,,,,,1.577,0.705,1.410*01
$GLGSA,A,3,65,67,74,75,76,81,,,,,,,,,,,,,,,1.577,0.705,1.410*27
$BDGSA,A,3,,,,,,,,,,,,,,,,,,,,,1.577,0.705,1.410*21
$QZGSA,A,3,,,,,,,,,,,,,,,,,,,,,1.577,0.705,1.410*2C
$GPGSV,10,1,34,2,45,276,31,4,57,68,27,5,18,297,29,6,43,211,38*72
$GPGSV,10,2,34,7,50,159,40,9,65,70,33,16,14,51,24,23,35,71,29*71
$GPGSV,10,3,34,26,8,26,19,29,9,336,32,30,22,187,40*40
$GLGSV,10,4,34,65,35,83,24,66,67,322,30,67,18,284,29,74,46,79,24*5A
$GLGSV,10,5,34,75,45,81,26,76,28,143,25,81,28,243,36,82,35,303,31*6F
$GLGSV,10,6,34,83,10,349,*61
$BDGSV,10,7,34,201,5,,,202,20,130,,203,5,,,204,5,,*58
$BDGSV,10,8,34,205,32,180,,206,17,51,,207,5,,,208,70,204,*64
$BDGSV,10,9,34,209,45,208,,210,5,,,211,6,21,,212,5,,*52
$BDGSV,10,10,34,213,5,,,214,5,,*68
$GPRMC,121441.00,A,5200.0027,N,00422.4643,E,2.079,256.889,241119,,E,A*11
$GPGGA,121442.00,5200.0025,N,00422.4634,E,1,15,0.705,53.622,M,,M,0,*75
$GNGSA,A,3,2,5,6,7,9,16,23,29,30,65,67,74,75,76,81,,,,,,1.577,0.705,1.411*15
$GPGSA,A,3,2,5,6,7,9,16,23,29,30,,,,,,,,,,,,1.577,0.705,1.411*00
$GLGSA,A,3,65,67,74,75,76,81,,,,,,,,,,,,,,,1.577,0.705,1.411*26
$BDGSA,A,3,,,,,,,,,,,,,,,,,,,,,1.577,0.705,1.411*20
$QZGSA,A,3,,,,,,,,,,,,,,,,,,,,,1.577,0.705,1.411*2D
$GPGSV,10,1,34,2,45,276,36,4,57,68,29,5,18,297,34,6,43,211,40*78
