$GPGGA,133037.00,5200.405693,N,00422.285099,E,1,28,0.6,6.6,M,46.8,M,,*6E
$GPGSV,3,1,10,07,68,105,29,30,54,183,30,05,47,297,46,09,36,082,31*7B
$GPGSV,3,2,10,02,33,240,33,13,17,260,31,06,13,199,18,23,10,085,25*79
$GPGSV,3,3,10,16,10,024,43,29,05,310,21*70
$GLGSV,2,1,06,65,57,313,40,73,39,044,39,81,23,325,37,75,22,174,23*69
$GLGSV,2,2,06,71,18,106,26,87,04,234,*61
$BDGSV,2,1,08,225,58,101,24,223,35,177,20,210,32,070,17,224,20,044,35*68
$BDGSV,2,2,08,229,11,319,29,205,11,120,,230,07,270,26,220,05,297,15*67
$GAGSV,2,1,08,104,75,289,40,119,43,096,19,121,42,080,28,101,31,146,16*6A
$GAGSV,2,2,08,136,25,305,39,109,21,281,29,127,14,030,40,112,00,205,*67
$GPGSA,A,3,02,05,07,09,13,16,23,29,30,,,,2.0,1.5,1.3*33
$GNGSA,A,3,02,05,07,09,13,16,23,29,30,,,,2.0,1.5,1.3*2D
$GNGSA,A,3,65,71,73,75,81,,,,,,,,2.0,1.5,1.3*22
$QZGSA,A,3,,,,,,,,,,,,,2.0,1.5,1.3*2A
$IMGSA,A,3,,,,,,,,,,,,,2.0,1.5,1.3*25
$BDGSA,A,3,210,220,223,224,225,229,230,,,,,,2.0,1.5,1.3*1E
$GAGSA,A,3,101,104,109,119,121,127,136,,,,,,2.0,1.5,1.3*11
$GPRMC,133037.00,A,5200.405693,N,00422.285099,E,000.0,221.9,221119,,,A*5A
$GPGGA,133038.00,5200.405693,N,00422.285099,E,1,26,0.6,6.6,M,46.8,M,,*6F
$GPGSV,3,1,10,07,68,105,28,30,55,183,30,05,47,297,46,09,36,082,30*7A
$GPGSV,3,2,10,02,33,240,33,13,17,260,31,06,13,199,18,23,10,085,25*79
$GPGSV,3,3,10,16,10,024,42,29,05,310,20*70
$GLGSV,2,1,06,65,57,313,40,73,39,044,38,81,23,325,39,75,22,174,23*66
$GLGSV,2,2,06,71,18,106,26,87,04,234,*61
$BDGSV,2,1,08,225,58,101,24,223,35,177,20,210,32,070,17,224,20,044,34*69
$BDGSV,2,2,08,229,11,319,29,205,11,120,,230,07,270,25,220,05,297,15*64
$GAGSV,2,1,08,104,75,289,40,119,43,096,19,121,42,080,28,101,31,146,16*6A
$GAGSV,2,2,08,136,25,305,39,109,21,281,27,127,14,030,39,112,00,205,*67
$GPGSA,A,3,02,05,06,07,09,13,16,23,30,,,,1.8,1.3,1.2*32
$GNGSA,A,3,02,05,06,07,09,13,16,23,30,,,,1.8,1.3,1.2*2C
$GNGSA,A,3,65,71,73,75,81,,,,,,,,1.8,1.3,1.2*2E
$QZGSA,A,3,,,,,,,,,,,,,1.8,1.3,1.2*26
$IMGSA,A,3,,,,,,,,,,,,,1.8,1.3,1.2*29
$BDGSA,A,3,223,224,225,229,230,,,,,,,,1.8,1.3,1.2*11
$GAGSA,A,3,101,104,109,119,121,127,136,,,,,,1.8,1.3,1.2*1D
$GPRMC,133038.00,A,5200.405693,N,00422.285099,E,000.0,221.9,221119,,,A*55
$GPGGA,133039.00,5200.405693,N,00422.285099,E,1,27,1.2,6.6,M,46.8,M,,*6A
$GPGSV,3,1,10,07,68,105,28,30,55,183,29,05,47,297,46,09,36,082,30*72
$GPGSV,3,2,10,02,33,240,33,13,17,260,31,06,13,199,,23,10,085,24*71
$GPGSV,3,3,10,16,10,024,41,29,05,310,*71
$GLGSV,2,1,06,65,57,313,40,73,39,044,36,81,23,325,39,75,22,174,22*69
$GLGSV,2,2,06,71,18,106,25,87,04,234,*62
$BDGSV,2,1,08,225,58,101,23,223,35,177,19,210,32,070,16,224,20,044,33*62
$BDGSV,2,2,08,229,11,319,29,205,11,120,,230,07,270,25,220,05,297,14*65
$GAGSV,2,1,08,104,75,289,39,119,43,096,18,121,42,080,27,101,31,146,15*69
$GAGSV,2,2,08,136,25,305,38,109,21,281,27,127,14,030,36,112,00,205,*69
$GPGSA,A,3,02,05,07,09,13,16,23,30,,,,,3.0,2.2,2.0*3D
$GNGSA,A,3,02,05,07,09,13,16,23,30,,,,,3.0,2.2,2.0*23
$GNGSA,A,3,65,71,73,75,81,,,,,,,,3.0,2.2,2.0*27
$QZGSA,A,3,,,,,,,,,,,,,3.0,2.2,2.0*2F
$IMGSA,A,3,,,,,,,,,,,,,3.0,2.2,2.0*20
$BDGSA,A,3,220,223,224,225,229,230,,,,,,,3.0,2.2,2.0*28
$GAGSA,A,3,101,104,109,119,121,127,136,,,,,,3.0,2.2,2.0*14
$GPRMC,133039.00,A,5200.405693,N,00422.285099,E,000.0,221.9,221119,,,A*54
$GPGGA,133040.00,5200.405913,N,00422.281231,E,1,28,0.4,6.6,M,46.8,M,,*6F
$GPGSV,3,1,10,07,68,105,28,30,55,183,29,05,47,297,45,09,36,082,29*79
$GPGSV,3,2,10,02,33,240,32,13,17,260,31,06,13,199,17,23,10,085,23*71
$GPGSV,3,3,10,16,10,024,41,29,05,310,*71
$GLGSV,2,1,06,65,57,313,39,73,39,044,35,81,23,325,39,75,22,174,22*64
$GLGSV,2,2,06,71,18,106,25,87,04,234,*62
$BDGSV,2,1,08,225,58,101,23,223,35,177,19,210,32,070,16,224,20,044,31*60
$BDGSV,2,2,08,229,11,319,29,205,11,120,,230,07,270,24,220,05,297,17*67
$GAGSV,2,1,08,104,75,289,41,119,43,096,18,121,42,080,27,101,31,146,15*66
$GAGSV,2,2,08,136,25,305,37,109,21,281,26,127,14,030,38,112,00,205,*69
$GPGSA,A,3,02,05,06,07,09,13,16,23,30,,,,2.2,1.4,1.6*38
$GNGSA,A,3,02,05,06,07,09,13,16,23,30,,,,2.2,1.4,1.6*26
$GNGSA,A,3,65,71,73,75,81,,,,,,,,2.2,1.4,1.6*24
$QZGSA,A,3,,,,,,,,,,,,,2.2,1.4,1.6*2C
$IMGSA,A,3,,,,,,,,,,,,,2.2,1.4,1.6*23
$BDGSA,A,3,210,220,223,224,225,229,230,,,,,,2.2,1.4,1.6*18
$GAGSA,A,3,101,104,109,119,121,127,136,,,,,,2.2,1.4,1.6*17
$GPRMC,133040.00,A,5200.405913,N,00422.281231,E,000.4,196.5,221119,,,A*5E
$GPGGA,133041.00,5200.406025,N,00422.281098,E,1,27,0.4,6.6,M,46.8,M,,*6F
$GPGSV,3,1,10,07,68,105,28,30,55,183,28,05,47,297,44,09,36,082,28*78
$GPGSV,3,2,10,02,33,240,32,13,17,260,30,06,13,199,16,23,10,085,22*70
$GPGSV,3,3,10,16,10,024,40,29,05,310,*70
$GLGSV,2,1,06,65,57,313,39,73,39,044,34,81,23,325,38,75,22,174,22*64
$GLGSV,2,2,06,71,18,106,24,87,04,234,*63
$BDGSV,2,1,08,225,58,101,22,223,35,177,21,210,32,070,16,224,20,044,30*6B
$BDGSV,2,2,08,229,11,319,28,205,11,120,,230,07,270,24,220,05,297,17*66
$GAGSV,2,1,08,104,75,289,41,119,43,096,18,121,42,080,26,101,31,146,15*67
$GAGSV,2,2,08,136,25,305,37,109,21,281,28,127,14,030,36,112,00,205,*69
$GPGSA,A,3,02,05,07,09,13,16,23,30,,,,,1.5,1.0,1.2*3A
$GNGSA,A,3,02,05,07,09,13,16,23,30,,,,,1.5,1.0,1.2*24
$GNGSA,A,3,65,71,73,75,81,,,,,,,,1.5,1.0,1.2*20
$QZGSA,A,3,,,,,,,,,,,,,1.5,1.0,1.2*28
$IMGSA,A,3,,,,,,,,,,,,,1.5,1.0,1.2*27
$BDGSA,A,3,220,223,224,225,229,230,,,,,,,1.5,1.0,1.2*2F
$GAGSA,A,3,101,104,109,119,121,127,136,,,,,,1.5,1.0,1.2*13
$GPRMC,133041.00,A,5200.406025,N,00422.281098,E,000.6,204.7,221119,,,A*59
$GPGGA,133042.00,5200.405813,N,00422.280931,E,1,26,0.4,6.7,M,46.8,M,,*69
$GPGSV,3,1,10,07,68,105,27,30,55,183,27,05,47,297,44,09,36,082,27*77
$GPGSV,3,2,10,02,33,240,31,13,17,260,30,06,13,199,,23,10,085,21*77
$GPGSV,3,3,10,16,10,024,39,29,05,310,*7E
$GLGSV,2,1,06,65,57,313,38,73,39,044,33,81,23,325,38,75,22,174,21*61
$GLGSV,2,2,06,71,18,106,24,87,04,234,*63
$BDGSV,2,1,08,225,58,101,22,223,36,177,20,210,32,070,15,224,20,044,29*62
$BDGSV,2,2,08,229,11,319,28,205,11,120,13,230,07,270,24,220,05,297,17*64
$GAGSV,2,1,08,104,75,289,40,119,43,096,18,121,42,080,25,101,31,146,15*65
$GAGSV,2,2,08,136,25,305,36,109,21,281,28,127,14,030,35,112,00,205,*6B
$GPGSA,A,3,02,05,07,09,13,16,30,,,,,,2.0,1.4,1.3*38
$GNGSA,A,3,02,05,07,09,13,16,30,,,,,,2.0,1.4,1.3*26
$GNGSA,A,3,65,71,73,75,81,,,,,,,,2.0,1.4,1.3*23
$QZGSA,A,3,,,,,,,,,,,,,2.0,1.4,1.3*2B
$IMGSA,A,3,,,,,,,,,,,,,2.0,1.4,1.3*24
$BDGSA,A,3,220,223,224,225,229,230,,,,,,,2.0,1.4,1.3*2C
$GAGSA,A,3,101,104,109,119,121,127,136,,,,,,2.0,1.4,1.3*10
$GPRMC,133042.00,A,5200.405813,N,00422.280931,E,000.6,204.7,221119,,,A*5F
$GPGGA,133043.00,5200.405683,N,00422.280753,E,1,25,0.4,6.7,M,46.8,M,,*66
$GPGSV,3,1,10,07,68,105,27,30,55,183,26,05,47,297,43,09,36,082,26*70
$GPGSV,3,2,10,02,33,240,30,13,17,260,29,06,13,199,15,23,10,085,20*7B
$GPGSV,3,3,10,16,10,024,38,29,05,310,*7F
$GLGSV,2,1,06,65,57,313,37,73,39,044,31,81,23,325,37,75,22,174,21*63
$GLGSV,2,2,06,71,18,106,23,87,04,234,*64
$BDGSV,2,1,08,225,58,101,21,223,36,177,19,210,32,070,15,224,20,044,27*65
$BDGSV,2,2,08,229,11,319,27,205,11,120,16,230,07,270,23,220,05,297,17*69
$GAGSV,2,1,08,104,75,289,40,119,43,096,18,121,42,080,25,101,31,146,14*64
$GAGSV,2,2,08,136,25,305,35,109,21,281,27,127,14,030,,112,00,205,*61
$GPGSA,A,3,02,05,06,07,09,13,16,30,,,,,1.9,1.4,1.3*34
$GNGSA,A,3,02,05,06,07,09,13,16,30,,,,,1.9,1.4,1.3*2A
$GNGSA,A,3,65,71,73,75,81,,,,,,,,1.9,1.4,1.3*29
$QZGSA,A,3,,,,,,,,,,,,,1.9,1.4,1.3*21
$IMGSA,A,3,,,,,,,,,,,,,1.9,1.4,1.3*2E
$BDGSA,A,3,205,220,225,229,230,,,,,,,,1.9,1.4,1.3*16
$GAGSA,A,3,101,104,109,119,121,136,,,,,,,1.9,1.4,1.3*2E
$GPRMC,133043.00,A,5200.405683,N,00422.280753,E,000.5,204.7,221119,,,A*50
$GPGGA,133044.00,5200.405614,N,00422.280618,E,1,20,0.4,6.7,M,46.8,M,,*64
$GPGSV,3,1,10,07,68,105,26,30,55,183,25,05,47,297,42,09,36,082,26*73
$GPGSV,3,2,10,02,33,240,29,13,17,260,28,06,13,199,,23,10,085,19*7C
$GPGSV,3,3,10,16,10,024,36,29,05,310,*71
$GLGSV,2,1,06,65,57,313,37,73,39,044,29,81,23,325,36,75,22,174,20*6A
$GLGSV,2,2,06,71,18,106,22,87,04,234,*65
$BDGSV,2,1,08,225,58,101,20,223,36,177,19,210,32,070,14,224,20,044,25*67
$BDGSV,2,2,08,229,11,319,26,205,11,120,,230,07,270,23,220,05,297,*69
$GAGSV,2,1,08,104,75,289,39,119,43,096,17,121,42,080,23,101,31,146,14*63
$GAGSV,2,2,08,136,25,305,34,109,21,281,27,127,14,030,31,112,00,205,*62
$GPGSA,A,3,02,05,07,09,13,16,30,,,,,,1.5,1.1,1.1*39
$GNGSA,A,3,02,05,07,09,13,16,30,,,,,,1.5,1.1,1.1*27
$GNGSA,A,3,65,71,75,81,,,,,,,,,1.5,1.1,1.1*26
$QZGSA,A,3,,,,,,,,,,,,,1.5,1.1,1.1*2A
$IMGSA,A,3,,,,,,,,,,,,,1.5,1.1,1.1*25
$BDGSA,A,3,229,230,,,,,,,,,,,1.5,1.1,1.1*2F
$GAGSA,A,3,104,109,119,121,127,136,,,,,,,1.5,1.1,1.1*21
$GPRMC,133044.00,A,5200.405614,N,00422.280618,E,000.4,204.7,221119,,,A*56
$GPGGA,133045.00,5200.405669,N,00422.280572,E,1,24,0.4,6.7,M,46.8,M,,*64
$GPGSV,3,1,10,07,68,104,25,30,55,183,24,05,47,297,42,09,36,082,25*73
$GPGSV,3,2,10,02,33,240,29,13,17,260,27,06,13,199,15,23,10,085,18*76
$GPGSV,3,3,10,16,10,024,34,29,05,310,*73
$GLGSV,2,1,06,65,57,313,36,73,39,044,27,81,23,325,35,75,22,174,19*6C
$GLGSV,2,2,06,71,18,106,21,87,04,234,*66
$BDGSV,2,1,08,225,58,101,18,223,36,177,18,210,32,070,14,224,20,044,*6A
$BDGSV,2,2,08,229,11,319,25,205,11,120,21,230,07,270,22,220,05,297,16*6F
$GAGSV,2,1,08,104,75,289,38,119,43,096,17,121,42,080,23,101,31,146,14*62
$GAGSV,2,2,08,136,25,305,33,109,21,281,27,127,14,030,29,112,00,205,*6C
$GPGSA,A,3,02,05,06,07,09,13,16,30,,,,,2.9,2.1,2.0*31
$GNGSA,A,3,02,05,06,07,09,13,16,30,,,,,2.9,2.1,2.0*2F
$GNGSA,A,3,65,71,75,81,,,,,,,,,2.9,2.1,2.0*28
$QZGSA,A,3,,,,,,,,,,,,,2.9,2.1,2.0*24
$IMGSA,A,3,,,,,,,,,,,,,2.9,2.1,2.0*2B
$BDGSA,A,3,205,210,223,229,230,,,,,,,,2.9,2.1,2.0*16
$GAGSA,A,3,104,109,119,121,127,136,,,,,,,2.9,2.1,2.0*2F
$GPRMC,133045.00,A,5200.405669,N,00422.280572,E,000.2,204.7,221119,,,A*54
$GPGGA,133046.00,5200.405666,N,00422.280505,E,1,19,0.4,6.7,M,46.8,M,,*66
$GPGSV,3,1,10,07,68,104,24,30,55,183,23,05,47,297,41,09,36,082,24*77
$GPGSV,3,2,10,02,33,240,29,13,17,260,26,06,13,199,15,23,10,085,17*78
$GPGSV,3,3,10,16,10,024,33,29,05,310,*74
$GLGSV,2,1,06,65,58,313,36,73,39,044,25,81,23,325,35,75,22,174,18*60
$GLGSV,2,2,06,71,18,106,20,87,04,234,*67
$BDGSV,2,1,08,225,58,101,,223,36,177,17,210,32,070,14,224,20,044,22*6C
$BDGSV,2,2,08,229,11,319,25,205,11,120,21,230,07,270,22,220,05,297,*68
$GAGSV,2,1,08,104,75,289,37,119,43,096,17,121,42,080,22,101,31,146,14*6C
$GAGSV,2,2,08,136,25,305,32,109,21,281,27,127,14,030,27,112,00,205,*63
$GPGSA,A,3,02,05,07,09,13,16,30,,,,,,1.7,1.1,1.2*38
$GNGSA,A,3,02,05,07,09,13,16,30,,,,,,1.7,1.1,1.2*26
$GNGSA,A,3,65,71,81,,,,,,,,,,1.7,1.1,1.2*25
$QZGSA,A,3,,,,,,,,,,,,,1.7,1.1,1.2*2B
$IMGSA,A,3,,,,,,,,,,,,,1.7,1.1,1.2*24
$BDGSA,A,3,205,229,230,,,,,,,,,,1.7,1.1,1.2*19
$GAGSA,A,3,104,109,119,121,127,136,,,,,,,1.7,1.1,1.2*20
$GPRMC,133046.00,A,5200.405666,N,00422.280505,E,000.4,204.7,221119,,,A*5E
$GPGGA,133047.00,5200.405578,N,00422.280404,E,1,19,0.4,6.7,M,46.8,M,,*6B
$GPGSV,3,1,10,07,68,104,23,30,55,183,22,05,47,297,41,09,36,082,24*71
$GPGSV,3,2,10,02,33,240,28,13,17,260,25,06,13,199,14,23,10,085,16*7A
$GPGSV,3,3,10,16,10,024,32,29,05,310,12*76
$GLGSV,2,1,06,65,58,313,36,73,39,044,24,81,23,325,34,75,22,174,18*60
$GLGSV,2,2,06,71,18,106,19,87,04,234,*6D
$BDGSV,2,1,08,225,58,101,,223,36,177,16,210,32,070,,224,20,044,21*6B
$BDGSV,2,2,08,229,11,319,24,205,11,120,,230,07,270,22,220,05,297,*6A
$GAGSV,2,1,08,104,75,289,36,119,43,096,17,121,42,080,21,101,31,146,13*69
$GAGSV,2,2,08,136,25,305,31,109,21,281,27,127,14,030,25,112,00,205,*62
$GPGSA,A,3,02,05,07,09,13,16,30,,,,,,1.9,1.3,1.4*32
$GNGSA,A,3,02,05,07,09,13,16,30,,,,,,1.9,1.3,1.4*2C
$GNGSA,A,3,65,71,73,81,,,,,,,,,1.9,1.3,1.4*2B
$QZGSA,A,3,,,,,,,,,,,,,1.9,1.3,1.4*21
$IMGSA,A,3,,,,,,,,,,,,,1.9,1.3,1.4*2E
$BDGSA,A,3,224,229,230,,,,,,,,,,1.9,1.3,1.4*10
$GAGSA,A,3,104,109,119,121,136,,,,,,,,1.9,1.3,1.4*1E
$GPRMC,133047.00,A,5200.405578,N,00422.280404,E,000.1,204.7,221119,,,A*56
$GPGGA,133048.00,5200.405585,N,00422.280408,E,1,18,0.6,6.7,M,46.8,M,,*69
$GPGSV,3,1,10,07,68,104,23,30,55,183,21,05,47,297,40,09,36,082,24*73
$GPGSV,3,2,10,02,32,240,28,13,17,260,25,06,13,199,,23,10,085,15*7D
$GPGSV,3,3,10,16,10,024,30,29,05,310,*77
$GLGSV,2,1,06,65,58,313,35,73,39,044,23,81,23,325,34,75,22,174,17*6B
$GLGSV,2,2,06,71,18,106,19,87,03,234,*6A
$BDGSV,2,1,08,225,58,101,,223,36,177,15,210,32,070,,224,20,044,21*68
$BDGSV,2,2,08,229,11,319,23,205,11,120,,230,07,270,22,220,05,297,*6D
$GAGSV,2,1,08,104,75,289,36,119,43,096,16,121,42,080,20,101,31,146,13*69
$GAGSV,2,2,08,136,25,305,31,109,21,281,27,127,13,030,,112,00,205,*62
$GPGSA,A,3,02,05,07,09,13,16,30,,,,,,1.6,1.1,1.2*39
$GNGSA,A,3,02,05,07,09,13,16,30,,,,,,1.6,1.1,1.2*27
$GNGSA,A,3,65,71,81,,,,,,,,,,1.6,1.1,1.2*24
$QZGSA,A,3,,,,,,,,,,,,,1.6,1.1,1.2*2A
$IMGSA,A,3,,,,,,,,,,,,,1.6,1.1,1.2*25
$BDGSA,A,3,224,229,230,,,,,,,,,,1.6,1.1,1.2*1B
$GAGSA,A,3,104,109,119,121,136,,,,,,,,1.6,1.1,1.2*15
$GPRMC,133048.00,A,5200.405585,N,00422.280408,E,000.3,204.7,221119,,,A*55
$GPGGA,133049.00,5200.405625,N,00422.280400,E,1,18,0.6,6.7,M,46.8,M,,*69
$GPGSV,3,1,10,07,68,104,22,30,55,183,21,05,47,297,39,09,36,082,23*7B
$GPGSV,3,2,10,02,32,240,28,13,17,260,24,06,13,199,,23,10,085,15*7C
$GPGSV,3,3,10,16,10,024,29,29,05,310,*7F
$GLGSV,2,1,06,65,58,313,35,73,39,044,22,81,23,325,33,75,22,174,16*6C
$GLGSV,2,2,06,71,18,106,18,87,03,234,*6B
$BDGSV,2,1,08,225,58,101,15,223,36,177,15,210,32,070,,224,20,044,20*6D
$BDGSV,2,2,08,229,11,319,23,205,11,120,,230,07,270,22,220,05,297,*6D
$GAGSV,2,1,08,104,75,289,35,119,43,096,16,121,42,080,19,101,31,146,13*60
$GAGSV,2,2,08,136,25,305,30,109,21,281,27,127,13,030,,112,00,205,*63
$GPGSA,A,3,02,05,07,09,13,16,30,,,,,,1.7,1.1,1.2*38
$GNGSA,A,3,02,05,07,09,13,16,30,,,,,,1.7,1.1,1.2*26
$GNGSA,A,3,65,71,81,,,,,,,,,,1.7,1.1,1.2*25
$QZGSA,A,3,,,,,,,,,,,,,1.7,1.1,1.2*2B
$IMGSA,A,3,,,,,,,,,,,,,1.7,1.1,1.2*24
$BDGSA,A,3,224,229,230,,,,,,,,,,1.7,1.1,1.2*1A
$GAGSA,A,3,104,109,119,121,136,,,,,,,,1.7,1.1,1.2*14
$GPRMC,133049.00,A,5200.405625,N,00422.280400,E,000.0,204.7,221119,,,A*56
$GPGGA,133050.00,5200.405691,N,00422.280438,E,1,20,0.6,6.7,M,46.8,M,,*6E
$GPGSV,3,1,10,07,68,104,22,30,55,183,20,05,47,297,39,09,36,082,23*7A
$GPGSV,3,2,10,02,32,240,28,13,17,260,23,06,13,199,,23,10,085,14*7A
$GPGSV,3,3,10,16,10,024,28,29,05,310,*7E
$GLGSV,2,1,06,65,58,313,35,73,39,044,21,81,23,324,33,75,22,174,*69
$GLGSV,2,2,06,71,18,106,18,87,03,234,*6B
$BDGSV,2,1,08,225,58,101,,223,36,177,14,210,32,070,,224,20,044,19*62
$BDGSV,2,2,08,229,11,319,22,205,11,120,,230,07,270,22,220,05,297,*6C
$GAGSV,2,1,08,104,75,289,35,119,43,096,16,121,42,080,19,101,31,146,12*61
$GAGSV,2,2,08,136,25,305,30,109,21,281,27,127,13,030,21,112,00,205,*60
$GPGSA,A,3,02,05,07,09,13,16,30,,,,,,2.1,1.3,1.7*3A
$GNGSA,A,3,02,05,07,09,13,16,30,,,,,,2.1,1.3,1.7*24
$GNGSA,A,3,65,71,81,,,,,,,,,,2.1,1.3,1.7*27
$QZGSA,A,3,,,,,,,,,,,,,2.1,1.3,1.7*29
$IMGSA,A,3,,,,,,,,,,,,,2.1,1.3,1.7*26
$BDGSA,A,3,224,229,230,,,,,,,,,,2.1,1.3,1.7*18
$GAGSA,A,3,104,109,119,121,127,136,,,,,,,2.1,1.3,1.7*22
$GPRMC,133050.00,A,5200.405691,N,00422.280438,E,000.2,204.7,221119,,,A*58
$GPGGA,133051.00,5200.405774,N,00422.280474,E,1,17,0.6,6.7,M,46.8,M,,*69
$GPGSV,3,1,10,07,68,104,22,30,55,183,19,05,47,297,39,09,36,082,23*70
$GPGSV,3,2,10,02,32,240,28,13,17,260,23,06,13,199,,23,10,085,14*7A
$GPGSV,3,3,10,16,10,024,27,29,05,310,*71
$GLGSV,2,1,06,65,58,313,35,73,39,044,20,81,23,324,33,75,22,174,*68
$GLGSV,2,2,06,71,18,106,17,87,03,234,*64
$BDGSV,2,1,08,225,58,101,14,223,36,177,14,210,32,070,,224,20,044,18*66
$BDGSV,2,2,08,229,11,319,22,205,11,120,,230,07,270,21,220,05,297,*6F
$GAGSV,2,1,08,104,75,289,34,119,43,096,16,121,42,080,18,101,31,146,12*61
$GAGSV,2,2,08,136,25,305,29,109,21,281,28,127,13,030,,112,00,205,*64
$GPGSA,A,3,02,05,07,09,13,16,30,,,,,,1.8,1.2,1.4*32
$GNGSA,A,3,02,05,07,09,13,16,30,,,,,,1.8,1.2,1.4*2C
$GNGSA,A,3,65,71,81,,,,,,,,,,1.8,1.2,1.4*2F
$QZGSA,A,3,,,,,,,,,,,,,1.8,1.2,1.4*21
$IMGSA,A,3,,,,,,,,,,,,,1.8,1.2,1.4*2E
$BDGSA,A,3,223,229,230,,,,,,,,,,1.8,1.2,1.4*17
$GAGSA,A,3,104,109,119,136,,,,,,,,,1.8,1.2,1.4*2C
$GPRMC,133051.00,A,5200.405774,N,00422.280474,E,000.1,204.7,221119,,,A*58
$GPGGA,133052.00,5200.405872,N,00422.280542,E,1,20,0.6,6.7,M,46.8,M,,*63
$GPGSV,3,1,10,07,68,104,22,30,55,183,19,05,47,297,38,09,36,082,22*70
$GPGSV,3,2,10,02,32,240,28,13,17,260,22,06,13,199,17,23,10,085,14*7D
$GPGSV,3,3,10,16,10,024,26,29,05,310,*70
$GLGSV,2,1,06,65,58,313,35,73,39,044,19,81,23,324,33,75,22,174,*62
$GLGSV,2,2,06,71,18,106,17,87,03,234,*64
$BDGSV,2,1,08,225,58,101,14,223,36,177,14,210,32,070,11,224,20,044,18*66
$BDGSV,2,2,08,229,11,319,21,205,11,120,,230,07,270,21,220,05,297,14*69
$GAGSV,2,1,08,104,75,289,34,119,43,096,16,121,42,080,17,101,31,146,12*6E
$GAGSV,2,2,08,136,25,305,29,109,21,281,28,127,13,030,19,112,00,205,*6C
$GPGSA,A,3,02,05,06,07,09,13,16,30,,,,,1.6,1.0,1.2*3E
$GNGSA,A,3,02,05,06,07,09,13,16,30,,,,,1.6,1.0,1.2*20
$GNGSA,A,3,65,71,81,,,,,,,,,,1.6,1.0,1.2*25
$QZGSA,A,3,,,,,,,,,,,,,1.6,1.0,1.2*2B
$IMGSA,A,3,,,,,,,,,,,,,1.6,1.0,1.2*24
$BDGSA,A,3,220,229,230,,,,,,,,,,1.6,1.0,1.2*1E
$GAGSA,A,3,104,109,119,127,136,,,,,,,,1.6,1.0,1.2*12
$GPRMC,133052.00,A,5200.405872,N,00422.280542,E,000.1,204.7,221119,,,A*56
$GPGGA,133053.00,5200.405951,N,00422.280617,E,1,19,0.6,6.7,M,46.8,M,,*6B
$GPGSV,3,1,10,07,68,104,22,30,55,183,18,05,47,297,38,09,36,082,22*71
$GPGSV,3,2,10,02,32,240,28,13,17,260,22,06,13,199,17,23,10,085,13*7A
$GPGSV,3,3,10,16,10,024,26,29,05,310,*70
$GLGSV,2,1,06,65,58,313,34,73,39,044,18,81,23,324,32,75,22,174,*63
$GLGSV,2,2,06,71,18,106,17,87,03,234,*64
$BDGSV,2,1,08,225,58,101,13,223,36,177,13,210,32,070,,224,20,044,17*69
$BDGSV,2,2,08,229,11,319,21,205,11,120,,230,07,270,21,220,05,297,14*69
$GAGSV,2,1,08,104,75,289,34,119,43,096,15,121,42,080,16,101,31,146,12*6C
$GAGSV,2,2,08,136,25,305,29,109,21,281,28,127,13,030,,112,00,205,*64
$GPGSA,A,3,02,05,07,09,13,16,23,30,,,,,1.5,1.0,1.2*3A
$GNGSA,A,3,02,05,07,09,13,16,23,30,,,,,1.5,1.0,1.2*24
$GNGSA,A,3,65,71,81,,,,,,,,,,1.5,1.0,1.2*26
$QZGSA,A,3,,,,,,,,,,,,,1.5,1.0,1.2*28
$IMGSA,A,3,,,,,,,,,,,,,1.5,1.0,1.2*27
$BDGSA,A,3,220,224,229,230,,,,,,,,,1.5,1.0,1.2*29
$GAGSA,A,3,104,109,119,136,,,,,,,,,1.5,1.0,1.2*25
$GPRMC,133053.00,A,5200.405951,N,00422.280617,E,000.1,204.7,221119,,,A*54
$GPGGA,133054.00,5200.406030,N,00422.280651,E,1,20,0.6,6.7,M,46.8,M,,*69
$GPGSV,3,1,10,07,68,104,21,30,55,183,18,05,47,297,38,09,36,082,21*71
$GPGSV,3,2,10,02,32,240,28,13,17,260,21,06,13,199,,23,10,085,14*78
$GPGSV,3,3,10,16,10,024,25,29,05,310,*73
$GLGSV,2,1,06,65,58,313,34,73,39,044,17,81,23,324,32,75,22,174,*6C
$GLGSV,2,2,06,71,18,106,16,87,03,234,*65
$BDGSV,2,1,08,225,58,101,13,223,36,177,,210,32,070,,224,20,044,17*6B
$BDGSV,2,2,08,229,11,319,20,205,11,120,,230,07,270,21,220,05,298,16*65
$GAGSV,2,1,08,104,75,289,33,119,43,096,15,121,42,079,16,101,31,146,11*6E
$GAGSV,2,2,08,136,25,305,28,109,21,281,28,127,13,030,,112,00,205,*65
$GPGSA,A,3,02,05,07,09,13,16,23,30,,,,,1.6,1.0,1.2*39
$GNGSA,A,3,02,05,07,09,13,16,23,30,,,,,1.6,1.0,1.2*27
$GNGSA,A,3,65,71,81,,,,,,,,,,1.6,1.0,1.2*25
$QZGSA,A,3,,,,,,,,,,,,,1.6,1.0,1.2*2B
$IMGSA,A,3,,,,,,,,,,,,,1.6,1.0,1.2*24
$BDGSA,A,3,220,224,225,229,230,,,,,,,,1.6,1.0,1.2*1F
$GAGSA,A,3,104,109,119,136,,,,,,,,,1.6,1.0,1.2*26
$GPRMC,133054.00,A,5200.406030,N,00422.280651,E,000.0,204.7,221119,,,A*5D
$GPGGA,133055.00,5200.406075,N,00422.280669,E,1,19,0.6,6.7,M,46.8,M,,*68
$GPGSV,3,1,10,07,68,104,21,30,55,183,18,05,47,297,37,09,36,082,21*7E
$GPGSV,3,2,10,02,32,240,28,13,17,260,21,06,13,199,15,23,10,085,14*7C
$GPGSV,3,3,10,16,10,024,24,29,05,310,*72
$GLGSV,2,1,06,65,58,313,34,73,39,044,17,81,23,324,32,75,22,174,*6C
$GLGSV,2,2,06,71,18,106,16,87,03,234,*65
$BDGSV,2,1,08,225,58,101,13,223,36,177,,210,32,070,10,224,20,044,16*6B
$BDGSV,2,2,08,229,11,319,20,205,11,120,,230,07,270,20,220,05,298,15*67
$GAGSV,2,1,08,104,75,289,33,119,43,096,15,121,42,079,15,101,31,146,11*6D
$GAGSV,2,2,08,136,25,305,28,109,21,281,28,127,13,030,20,112,00,205,*67
$GPGSA,A,3,02,05,07,09,13,16,23,30,,,,,1.7,1.1,1.3*38
$GNGSA,A,3,02,05,07,09,13,16,23,30,,,,,1.7,1.1,1.3*26
$GNGSA,A,3,65,71,81,,,,,,,,,,1.7,1.1,1.3*24
$QZGSA,A,3,,,,,,,,,,,,,1.7,1.1,1.3*2A
$IMGSA,A,3,,,,,,,,,,,,,1.7,1.1,1.3*25
$BDGSA,A,3,220,229,230,,,,,,,,,,1.7,1.1,1.3*1F
$GAGSA,A,3,104,109,127,136,,,,,,,,,1.7,1.1,1.3*2A
$GPRMC,133055.00,A,5200.406075,N,00422.280669,E,000.0,204.7,221119,,,A*56
$GPGGA,133056.00,5200.406240,N,00422.280728,E,1,20,0.6,6.7,M,46.8,M,,*61
$GPGSV,3,1,10,07,68,104,21,30,55,183,17,05,47,297,37,09,36,082,21*71
$GPGSV,3,2,10,02,32,240,28,13,17,260,20,06,13,199,14,23,10,085,15*7D
$GPGSV,3,3,10,16,10,024,23,29,05,310,*75
$GLGSV,2,1,06,65,58,313,34,73,39,044,16,81,23,324,32,75,22,174,*6D
$GLGSV,2,2,06,71,18,106,16,87,03,234,*65
$BDGSV,2,1,08,225,58,101,13,223,36,177,12,210,32,070,,224,20,044,16*69
$BDGSV,2,2,08,229,11,319,19,205,11,120,,230,07,270,20,220,05,298,19*61
$GAGSV,2,1,08,104,75,289,33,119,43,096,14,121,42,079,15,101,31,146,11*6C
$GAGSV,2,2,08,136,25,305,28,109,21,281,28,127,13,030,20,112,00,205,*67
$GPGSA,A,3,02,05,07,09,13,16,23,30,,,,,2.1,1.4,1.6*3D
$GNGSA,A,3,02,05,07,09,13,16,23,30,,,,,2.1,1.4,1.6*23
$GNGSA,A,3,65,71,73,81,,,,,,,,,2.1,1.4,1.6*25
$QZGSA,A,3,,,,,,,,,,,,,2.1,1.4,1.6*2F
$IMGSA,A,3,,,,,,,,,,,,,2.1,1.4,1.6*20
$BDGSA,A,3,220,229,230,,,,,,,,,,2.1,1.4,1.6*1A
$GAGSA,A,3,104,109,127,136,,,,,,,,,2.1,1.4,1.6*2F
$GPRMC,133056.00,A,5200.406240,N,00422.280728,E,000.0,204.7,221119,,,A*55
$GPGGA,133057.00,5200.406278,N,00422.280747,E,1,17,0.6,6.7,M,46.8,M,,*66
$GPGSV,3,1,10,07,68,104,20,30,55,183,17,05,47,297,37,09,36,082,21*70
$GPGSV,3,2,10,02,32,240,28,13,17,260,19,06,13,199,,23,10,085,15*72
$GPGSV,3,3,10,16,10,024,23,29,05,310,*75
$GLGSV,2,1,06,65,58,313,34,73,39,044,16,81,23,324,32,75,22,174,*6D
$GLGSV,2,2,06,71,18,106,16,87,03,234,*65
$BDGSV,2,1,08,225,58,101,12,223,36,177,12,210,32,070,09,224,20,044,15*62
$BDGSV,2,2,08,229,11,319,19,205,11,120,,230,07,270,20,220,05,298,*69
$GAGSV,2,1,08,104,75,289,33,119,43,096,14,121,42,079,14,101,31,146,10*6C
$GAGSV,2,2,08,136,25,305,27,109,21,281,28,127,13,030,19,112,00,205,*62
$GPGSA,A,3,02,05,07,09,13,16,23,30,,,,,1.9,1.2,1.4*32
$GNGSA,A,3,02,05,07,09,13,16,23,30,,,,,1.9,1.2,1.4*2C
$GNGSA,A,3,65,71,81,,,,,,,,,,1.9,1.2,1.4*2E
$QZGSA,A,3,,,,,,,,,,,,,1.9,1.2,1.4*20
$IMGSA,A,3,,,,,,,,,,,,,1.9,1.2,1.4*2F
$BDGSA,A,3,229,230,,,,,,,,,,,1.9,1.2,1.4*25
$GAGSA,A,3,104,109,119,136,,,,,,,,,1.9,1.2,1.4*2D
$GPRMC,133057.00,A,5200.406278,N,00422.280747,E,000.0,204.7,221119,,,A*56
$GPGGA,133058.00,5200.406449,N,00422.280791,E,1,21,0.6,6.7,M,46.8,M,,*63
$GPGSV,3,1,10,07,68,104,20,30,55,183,17,05,47,297,37,09,36,082,20*71
$GPGSV,3,2,10,02,32,240,28,13,17,260,19,06,13,199,,23,10,085,15*72
$GPGSV,3,3,10,16,10,024,22,29,05,310,15*70
$GLGSV,2,1,06,65,58,313,34,73,39,044,15,81,23,324,32,75,23,174,*6F
$GLGSV,2,2,06,71,18,106,16,87,03,234,*65
$BDGSV,2,1,08,225,58,101,12,223,36,177,11,210,32,070,11,224,20,043,14*6E
$BDGSV,2,2,08,229,11,319,19,205,11,120,17,230,07,270,19,220,05,298,*65
$GAGSV,2,1,08,104,75,289,33,119,43,096,14,121,42,079,14,101,31,146,10*6C
$GAGSV,2,2,08,136,25,305,27,109,21,281,28,127,13,030,,112,00,205,*6A
$GPGSA,A,3,02,05,07,09,13,16,23,29,30,,,,1.6,1.1,1.2*33
$GNGSA,A,3,02,05,07,09,13,16,23,29,30,,,,1.6,1.1,1.2*2D
$GNGSA,A,3,65,71,73,81,,,,,,,,,1.6,1.1,1.2*20
$QZGSA,A,3,,,,,,,,,,,,,1.6,1.1,1.2*2A
$IMGSA,A,3,,,,,,,,,,,,,1.6,1.1,1.2*25
$BDGSA,A,3,205,225,229,230,,,,,,,,,1.6,1.1,1.2*2D
$GAGSA,A,3,104,109,119,136,,,,,,,,,1.6,1.1,1.2*27
$GPRMC,133058.00,A,5200.406449,N,00422.280791,E,000.1,204.7,221119,,,A*57
$GPGGA,133059.00,5200.407057,N,00422.280881,E,1,21,0.6,6.8,M,46.8,M,,*69
$GPGSV,3,1,10,07,68,104,20,30,55,183,16,05,47,297,36,09,36,082,20*71
$GPGSV,3,2,10,02,32,240,28,13,17,260,18,06,13,199,13,23,10,085,16*72
$GPGSV,3,3,10,16,10,024,21,29,05,310,19*7F
$GLGSV,2,1,06,65,58,313,34,73,39,044,15,81,23,324,32,75,23,174,*6F
$GLGSV,2,2,06,71,18,106,16,87,03,234,*65
$BDGSV,2,1,08,225,58,101,15,223,36,177,,210,32,070,,224,20,043,*6C
$BDGSV,2,2,08,229,11,319,19,205,11,120,,230,07,270,19,220,05,298,*63
$GAGSV,2,1,08,104,75,289,32,119,43,096,14,121,42,079,13,101,31,146,*6B
$GAGSV,2,2,08,136,25,305,27,109,21,281,28,127,13,030,21,112,00,205,*69
$GPGSA,A,3,02,05,07,09,13,16,23,29,30,,,,1.8,1.2,1.4*38
$GNGSA,A,3,02,05,07,09,13,16,23,29,30,,,,1.8,1.2,1.4*26
$GNGSA,A,3,65,71,73,81,,,,,,,,,1.8,1.2,1.4*2B
$QZGSA,A,3,,,,,,,,,,,,,1.8,1.2,1.4*21
$IMGSA,A,3,,,,,,,,,,,,,1.8,1.2,1.4*2E
$BDGSA,A,3,225,229,230,,,,,,,,,,1.8,1.2,1.4*11
$GAGSA,A,3,104,109,119,127,136,,,,,,,,1.8,1.2,1.4*18
$GPRMC,133059.00,A,5200.407057,N,00422.280881,E,000.1,204.7,221119,,,A*52
$GPGGA,133100.00,5200.407547,N,00422.281079,E,1,18,0.6,6.8,M,46.8,M,,*64
$GPGSV,3,1,10,07,68,104,20,30,55,183,16,05,47,297,36,09,36,083,20*70
$GPGSV,3,2,10,02,32,240,28,13,17,260,18,06,13,199,,23,10,085,16*70
$GPGSV,3,3,10,16,10,024,21,29,05,310,*77
$GLGSV,2,1,06,65,58,313,34,73,39,044,15,81,23,324,32,75,23,174,10*6E
$GLGSV,2,2,06,71,18,106,16,87,03,234,*65
$BDGSV,2,1,08,225,58,101,15,223,36,177,,210,32,070,10,224,20,043,*6D
$BDGSV,2,2,08,229,11,319,19,205,11,120,,230,07,270,19,220,05,298,*63
$GAGSV,2,1,08,104,75,289,32,119,43,096,14,121,42,079,13,101,31,146,*6B
$GAGSV,2,2,08,136,25,305,27,109,21,281,28,127,13,030,,112,00,205,*6A
$GPGSA,A,3,02,05,07,09,13,16,23,30,,,,,1.8,1.3,1.3*35
$GNGSA,A,3,02,05,07,09,13,16,23,30,,,,,1.8,1.3,1.3*2B
$GNGSA,A,3,65,71,73,81,,,,,,,,,1.8,1.3,1.3*2D
$QZGSA,A,3,,,,,,,,,,,,,1.8,1.3,1.3*27
$IMGSA,A,3,,,,,,,,,,,,,1.8,1.3,1.3*28
$BDGSA,A,3,225,229,230,,,,,,,,,,1.8,1.3,1.3*17
$GAGSA,A,3,104,109,136,,,,,,,,,,1.8,1.3,1.3*13
$GPRMC,133100.00,A,5200.407547,N,00422.281079,E,000.1,204.7,221119,,,A*55
$GPGGA,133101.00,5200.407970,N,00422.281249,E,1,19,0.6,6.8,M,46.8,M,,*6D
$GPGSV,3,1,10,07,68,104,20,30,55,183,16,05,47,297,36,09,36,083,20*70
$GPGSV,3,2,10,02,32,240,28,13,17,260,17,06,13,199,19,23,10,085,16*77
$GPGSV,3,3,10,16,10,024,20,29,05,310,*76
$GLGSV,2,1,06,65,58,313,34,73,39,044,15,81,23,324,32,75,23,174,10*6E
$GLGSV,2,2,06,71,18,106,16,87,03,234,*65
$BDGSV,2,1,08,225,58,100,15,223,36,177,10,210,32,070,,224,20,043,*6C
$BDGSV,2,2,08,229,11,319,19,205,11,120,,230,07,270,19,220,06,298,15*64
$GAGSV,2,1,08,104,75,289,32,119,43,096,13,121,42,079,13,101,31,146,*6C
$GAGSV,2,2,08,136,25,305,27,109,21,281,27,127,13,030,19,112,00,205,*6D
$GPGSA,A,3,02,05,06,07,09,13,16,23,,,,,1.8,1.3,1.3*30
$GNGSA,A,3,02,05,06,07,09,13,16,23,,,,,1.8,1.3,1.3*2E
$GNGSA,A,3,65,71,73,81,,,,,,,,,1.8,1.3,1.3*2D
$QZGSA,A,3,,,,,,,,,,,,,1.8,1.3,1.3*27
$IMGSA,A,3,,,,,,,,,,,,,1.8,1.3,1.3*28
$BDGSA,A,3,220,225,229,230,,,,,,,,,1.8,1.3,1.3*27
$GAGSA,A,3,104,109,136,,,,,,,,,,1.8,1.3,1.3*13
$GPRMC,133101.00,A,5200.407970,N,00422.281249,E,000.3,204.7,221119,,,A*5F
$GPGGA,133102.00,5200.407925,N,00422.281294,E,1,19,0.6,6.8,M,46.8,M,,*6E
$GPGSV,3,1,10,07,68,104,20,30,55,183,15,05,47,297,36,09,36,083,20*73
$GPGSV,3,2,10,02,32,240,28,13,17,260,17,06,13,199,,23,10,085,17*7E
$GPGSV,3,3,10,16,10,024,20,29,05,310,*76
$GLGSV,2,1,06,65,58,313,34,73,39,044,15,81,23,324,32,75,23,174,10*6E
$GLGSV,2,2,06,71,18,106,15,87,03,234,*66
$BDGSV,2,1,08,225,58,100,16,223,36,177,,210,32,070,,224,20,043,*6E
$BDGSV,2,2,08,229,11,319,19,205,11,120,,230,07,270,19,220,06,298,*60
$GAGSV,2,1,08,104,75,289,32,119,43,096,13,121,42,079,13,101,31,146,*6C
$GAGSV,2,2,08,136,25,305,26,109,21,281,27,127,13,030,18,112,00,205,*6D
$GPGSA,A,3,02,05,07,09,13,16,23,,,,,,1.8,1.2,1.3*37
$GNGSA,A,3,02,05,07,09,13,16,23,,,,,,1.8,1.2,1.3*29
$GNGSA,A,3,65,71,73,81,,,,,,,,,1.8,1.2,1.3*2C
$QZGSA,A,3,,,,,,,,,,,,,1.8,1.2,1.3*26
$IMGSA,A,3,,,,,,,,,,,,,1.8,1.2,1.3*29
$BDGSA,A,3,225,229,230,,,,,,,,,,1.8,1.2,1.3*16
$GAGSA,A,3,104,109,121,127,136,,,,,,,,1.8,1.2,1.3*14
$GPRMC,133102.00,A,5200.407925,N,00422.281294,E,000.2,204.7,221119,,,A*5D
$GPGGA,133103.00,5200.407971,N,00422.281259,E,1,21,0.6,6.9,M,46.8,M,,*65
$GPGSV,3,1,10,07,68,104,20,30,55,183,15,05,47,297,36,09,36,083,21*72
$GPGSV,3,2,10,02,32,240,27,13,17,260,16,06,13,199,,23,10,085,17*70
$GPGSV,3,3,10,16,10,024,20,29,05,310,*76
$GLGSV,2,1,06,65,58,313,34,73,39,044,15,81,23,324,33,75,23,174,10*6F
$GLGSV,2,2,06,71,18,106,15,87,03,234,*66
$BDGSV,2,1,08,225,58,100,16,223,36,177,10,210,32,070,09,224,20,043,11*66
$BDGSV,2,2,08,229,11,319,19,205,11,120,15,230,07,270,19,220,06,298,*64
$GAGSV,2,1,08,104,75,289,32,119,43,096,13,121,42,079,13,101,31,146,*6C
$GAGSV,2,2,08,136,25,305,26,109,21,281,27,127,13,030,20,112,00,205,*66
$GPGSA,A,3,02,05,07,09,13,16,23,,,,,,1.9,1.2,1.4*31
$GNGSA,A,3,02,05,07,09,13,16,23,,,,,,1.9,1.2,1.4*2F
$GNGSA,A,3,65,71,73,81,,,,,,,,,1.9,1.2,1.4*2A
$QZGSA,A,3,,,,,,,,,,,,,1.9,1.2,1.4*20
$IMGSA,A,3,,,,,,,,,,,,,1.9,1.2,1.4*2F
$BDGSA,A,3,205,225,229,230,,,,,,,,,1.9,1.2,1.4*27
$GAGSA,A,3,104,109,121,127,136,,,,,,,,1.9,1.2,1.4*12
$GPRMC,133103.00,A,5200.407971,N,00422.281259,E,000.0,204.7,221119,,,A*5E
$GPGGA,133104.00,5200.408019,N,00422.281230,E,1,22,0.6,6.9,M,46.8,M,,*66
$GPGSV,3,1,10,07,68,104,20,30,55,183,14,05,47,297,36,09,36,083,21*73
$GPGSV,3,2,10,02,32,240,27,13,17,260,16,06,13,199,,16,10,024,19*73
$GPGSV,3,3,10,23,09,085,17,29,05,310,16*70
$GLGSV,2,1,06,65,58,313,34,73,39,044,15,81,23,324,33,75,23,174,10*6F
$GLGSV,2,2,06,71,18,106,15,87,03,234,*66
$BDGSV,2,1,08,225,58,100,16,223,36,177,10,210,32,070,,224,20,043,*6F
$BDGSV,2,2,08,229,11,319,19,205,11,120,15,230,07,270,19,220,06,298,13*66
$GAGSV,2,1,08,104,75,289,32,119,43,096,13,121,42,079,13,101,31,146,*6C
$GAGSV,2,2,08,136,25,305,26,109,21,281,27,127,13,030,21,112,00,205,*67
$GPGSA,A,3,02,05,07,09,13,16,23,29,,,,,1.9,1.3,1.3*3C
$GNGSA,A,3,02,05,07,09,13,16,23,29,,,,,1.9,1.3,1.3*22
$GNGSA,A,3,65,71,73,81,,,,,,,,,1.9,1.3,1.3*2C
$QZGSA,A,3,,,,,,,,,,,,,1.9,1.3,1.3*26
$IMGSA,A,3,,,,,,,,,,,,,1.9,1.3,1.3*29
$BDGSA,A,3,205,225,229,230,,,,,,,,,1.9,1.3,1.3*21
$GAGSA,A,3,104,109,121,127,136,,,,,,,,1.9,1.3,1.3*14
$GPRMC,133104.00,A,5200.408019,N,00422.281230,E,000.1,204.7,221119,,,A*5F
$GPGGA,133105.00,5200.408054,N,00422.281246,E,1,20,0.6,6.9,M,46.8,M,,*6D
$GPGSV,3,1,10,07,68,104,20,30,55,183,14,05,47,297,36,09,36,083,20*72
$GPGSV,3,2,10,02,32,240,27,13,17,260,16,06,13,199,,16,10,024,19*73
$GPGSV,3,3,10,23,09,085,17,29,05,310,17*71
$GLGSV,2,1,06,65,58,313,34,73,39,044,15,81,23,324,33,75,23,174,10*6F
$GLGSV,2,2,06,71,18,106,15,87,03,234,*66
$BDGSV,2,1,08,225,58,100,16,223,36,177,11,210,32,070,11,224,20,043,*6E
$BDGSV,2,2,08,229,11,319,19,205,11,120,17,230,07,270,20,220,06,298,*6C
$GAGSV,2,1,08,104,75,289,32,119,43,096,12,121,42,079,13,101,31,146,10*6C
$GAGSV,2,2,08,136,25,305,26,109,21,281,27,127,13,030,,112,00,205,*64
$GPGSA,A,3,02,05,07,09,13,16,23,29,,,,,1.9,1.3,1.3*3C
$GNGSA,A,3,02,05,07,09,13,16,23,29,,,,,1.9,1.3,1.3*22
$GNGSA,A,3,65,71,73,81,,,,,,,,,1.9,1.3,1.3*2C
$QZGSA,A,3,,,,,,,,,,,,,1.9,1.3,1.3*26
$IMGSA,A,3,,,,,,,,,,,,,1.9,1.3,1.3*29
$BDGSA,A,3,205,225,229,230,,,,,,,,,1.9,1.3,1.3*21
$GAGSA,A,3,104,109,121,136,,,,,,,,,1.9,1.3,1.3*20
$GPRMC,133105.00,A,5200.408054,N,00422.281246,E,000.0,204.7,221119,,,A*57
$GPGGA,133106.00,5200.408073,N,00422.281245,E,1,20,0.6,6.9,M,46.8,M,,*68
$GPGSV,3,1,10,07,68,104,20,30,55,183,13,05,47,297,35,09,36,083,20*76
$GPGSV,3,2,10,02,32,240,27,13,17,260,15,06,13,199,15,16,10,024,18*75
$GPGSV,3,3,10,23,09,085,17,29,05,310,16*70
$GLGSV,2,1,06,65,58,313,34,73,39,044,15,81,23,324,33,75,23,174,11*6E
$GLGSV,2,2,06,71,18,106,14,87,03,234,*67
$BDGSV,2,1,08,225,58,100,17,223,36,177,11,210,32,070,11,224,20,043,*6F
$BDGSV,2,2,08,229,11,319,19,205,11,120,,230,07,270,20,220,06,298,*6A
$GAGSV,2,1,08,104,75,289,32,119,43,096,12,121,42,079,13,101,31,146,10*6C
$GAGSV,2,2,08,136,25,305,26,109,21,281,27,127,13,030,19,112,00,205,*6C
$GPGSA,A,3,02,05,07,09,13,16,23,29,,,,,2.2,1.4,1.7*37
$GNGSA,A,3,02,05,07,09,13,16,23,29,,,,,2.2,1.4,1.7*29
$GNGSA,A,3,65,73,81,,,,,,,,,,2.2,1.4,1.7*21
$QZGSA,A,3,,,,,,,,,,,,,2.2,1.4,1.7*2D
$IMGSA,A,3,,,,,,,,,,,,,2.2,1.4,1.7*22
$BDGSA,A,3,225,229,230,,,,,,,,,,2.2,1.4,1.7*1D
$GAGSA,A,3,104,109,121,127,136,,,,,,,,2.2,1.4,1.7*1F
$GPRMC,133106.00,A,5200.408073,N,00422.281245,E,000.0,204.7,221119,,,A*52
$GPGGA,133107.00,5200.408134,N,00422.281196,E,1,16,0.6,6.9,M,46.8,M,,*63
$GPGSV,3,1,10,07,68,104,20,30,55,183,13,05,47,297,35,09,36,083,20*76
$GPGSV,3,2,10,02,32,240,27,13,17,260,15,06,13,199,,16,10,024,18*71
$GPGSV,3,3,10,23,09,085,17,29,05,310,*77
$GLGSV,2,1,06,65,58,313,34,73,38,044,15,81,23,324,33,75,23,174,12*6C
$GLGSV,2,2,06,71,18,106,14,87,03,234,*67
$BDGSV,2,1,08,225,58,100,17,223,36,177,12,210,32,070,,224,20,043,*6C
$BDGSV,2,2,08,229,11,319,19,205,11,120,,230,07,270,20,220,06,298,*6A
$GAGSV,2,1,08,104,75,289,32,119,43,096,12,121,42,079,13,101,31,146,10*6C
$GAGSV,2,2,08,136,25,305,26,109,21,281,27,127,13,030,,112,00,204,*65
$GPGSA,A,3,02,05,07,09,16,23,,,,,,,1.8,1.3,1.3*34
$GNGSA,A,3,02,05,07,09,16,23,,,,,,,1.8,1.3,1.3*2A
$GNGSA,A,3,65,73,81,,,,,,,,,,1.8,1.3,1.3*2B
$QZGSA,A,3,,,,,,,,,,,,,1.8,1.3,1.3*27
$IMGSA,A,3,,,,,,,,,,,,,1.8,1.3,1.3*28
$BDGSA,A,3,225,229,230,,,,,,,,,,1.8,1.3,1.3*17
$GAGSA,A,3,104,109,121,136,,,,,,,,,1.8,1.3,1.3*21
$GPRMC,133107.00,A,5200.408134,N,00422.281196,E,000.2,204.7,221119,,,A*5E
$GPGGA,133108.00,5200.408132,N,00422.281243,E,1,18,0.6,6.9,M,46.8,M,,*6F
$GPGSV,3,1,10,07,68,104,20,30,55,183,12,05,47,297,35,09,36,083,20*77
$GPGSV,3,2,10,02,32,240,27,13,17,260,15,06,13,199,,16,10,024,18*71
$GPGSV,3,3,10,23,09,085,17,29,05,310,*77
$GLGSV,2,1,06,65,58,313,34,73,38,044,15,81,23,324,33,75,23,174,12*6C
$GLGSV,2,2,06,71,18,106,14,87,03,234,*67
$BDGSV,2,1,08,225,58,100,17,223,36,177,12,210,32,070,,224,20,043,*6C
$BDGSV,2,2,08,229,11,319,19,205,11,120,,230,07,270,19,220,06,298,*60
$GAGSV,2,1,08,104,75,289,32,119,43,096,12,121,42,079,13,101,32,146,10*6F
$GAGSV,2,2,08,136,25,305,25,109,21,281,27,127,13,030,19,112,00,204,*6E
$GPGSA,A,3,02,05,07,09,16,23,,,,,,,2.0,1.5,1.3*39
$GNGSA,A,3,02,05,07,09,16,23,,,,,,,2.0,1.5,1.3*27
$GNGSA,A,3,65,73,75,81,,,,,,,,,2.0,1.5,1.3*24
$QZGSA,A,3,,,,,,,,,,,,,2.0,1.5,1.3*2A
$IMGSA,A,3,,,,,,,,,,,,,2.0,1.5,1.3*25
$BDGSA,A,3,225,229,230,,,,,,,,,,2.0,1.5,1.3*1A
$GAGSA,A,3,104,109,121,127,136,,,,,,,,2.0,1.5,1.3*18
$GPRMC,133108.00,A,5200.408132,N,00422.281243,E,000.0,204.7,221119,,,A*5E
$GPGGA,133109.00,5200.408173,N,00422.281179,E,1,19,0.6,6.9,M,46.8,M,,*60
$GPGSV,3,1,10,07,68,104,20,30,55,183,12,05,47,297,35,09,36,083,19*7D
$GPGSV,3,2,10,02,32,240,27,13,17,260,14,06,13,199,13,16,10,024,18*72
$GPGSV,3,3,10,23,09,085,18,29,05,310,*78
$GLGSV,2,1,06,65,58,313,34,73,38,044,15,81,23,324,32,75,23,174,13*6C
$GLGSV,2,2,06,71,18,106,13,87,03,234,*60
$BDGSV,2,1,08,225,58,100,17,223,36,177,12,210,32,070,,224,20,043,12*6F
$BDGSV,2,2,08,229,11,319,18,205,11,120,14,230,07,270,20,220,06,298,*6E
$GAGSV,2,1,08,104,75,289,32,119,43,096,12,121,42,079,13,101,32,146,10*6F
$GAGSV,2,2,08,136,25,305,25,109,21,281,27,127,13,030,19,112,00,204,*6E
$GPGSA,A,3,02,05,07,09,16,23,,,,,,,1.8,1.3,1.3*34
$GNGSA,A,3,02,05,07,09,16,23,,,,,,,1.8,1.3,1.3*2A
$GNGSA,A,3,65,73,75,81,,,,,,,,,1.8,1.3,1.3*29
$QZGSA,A,3,,,,,,,,,,,,,1.8,1.3,1.3*27
$IMGSA,A,3,,,,,,,,,,,,,1.8,1.3,1.3*28
$BDGSA,A,3,224,225,229,230,,,,,,,,,1.8,1.3,1.3*23
$GAGSA,A,3,104,109,121,127,136,,,,,,,,1.8,1.3,1.3*15
$GPRMC,133109.00,A,5200.408173,N,00422.281179,E,000.1,204.7,221119,,,A*51
$GPGGA,133110.00,5200.408187,N,00422.281216,E,1,21,0.6,6.9,M,46.8,M,,*62
$GPGSV,3,1,10,07,68,104,20,30,55,183,,05,47,297,35,09,36,083,19*7E
$GPGSV,3,2,10,02,32,240,27,13,17,260,14,06,13,199,14,16,10,024,18*75
$GPGSV,3,3,10,23,09,085,18,29,05,310,*78
$GLGSV,2,1,06,65,58,313,33,73,38,044,15,81,23,324,32,75,23,174,13*6B
$GLGSV,2,2,06,71,18,106,13,87,03,234,*60
$BDGSV,2,1,08,225,58,100,17,223,36,177,12,210,32,070,,224,20,043,*6C
$BDGSV,2,2,08,229,11,319,18,205,11,120,,230,07,270,20,220,06,298,10*6A
$GAGSV,2,1,08,104,75,289,33,119,43,096,12,121,42,079,13,101,32,146,10*6E
$GAGSV,2,2,08,136,25,305,25,109,21,281,27,127,13,030,18,112,00,204,*6F
$GPGSA,A,3,02,05,06,07,09,13,16,23,,,,,2.0,1.5,1.3*3D
$GNGSA,A,3,02,05,06,07,09,13,16,23,,,,,2.0,1.5,1.3*23
$GNGSA,A,3,65,73,75,81,,,,,,,,,2.0,1.5,1.3*24
$QZGSA,A,3,,,,,,,,,,,,,2.0,1.5,1.3*2A
$IMGSA,A,3,,,,,,,,,,,,,2.0,1.5,1.3*25
$BDGSA,A,3,225,229,230,,,,,,,,,,2.0,1.5,1.3*1A
$GAGSA,A,3,104,109,121,127,136,,,,,,,,2.0,1.5,1.3*18
$GPRMC,133110.00,A,5200.408187,N,00422.281216,E,000.0,204.7,221119,,,A*59
$GPGGA,133111.00,5200.408213,N,00422.281174,E,1,20,0.6,6.9,M,46.8,M,,*6B
$GPGSV,3,1,10,07,68,104,20,30,55,183,,05,47,297,35,09,36,083,19*7E
$GPGSV,3,2,10,02,32,240,27,13,17,260,14,06,13,199,,16,10,024,17*7F
$GPGSV,3,3,10,23,09,085,17,29,05,310,*77
$GLGSV,2,1,06,65,58,313,33,73,38,044,15,81,23,324,32,75,23,174,14*6C
$GLGSV,2,2,06,71,18,106,13,87,03,234,*60
$BDGSV,2,1,08,225,58,100,17,223,36,177,14,210,32,070,09,224,20,043,*63
$BDGSV,2,2,08,229,11,319,18,205,11,120,18,230,07,270,21,220,06,298,10*62
$GAGSV,2,1,08,104,75,289,33,119,43,096,11,121,42,079,13,101,32,146,10*6D
$GAGSV,2,2,08,136,25,305,25,109,21,281,27,127,13,030,18,112,00,204,*6F
$GPGSA,A,3,02,05,07,09,13,16,23,,,,,,2.2,1.4,1.7*3C
$GNGSA,A,3,02,05,07,09,13,16,23,,,,,,2.2,1.4,1.7*22
$GNGSA,A,3,65,73,75,81,,,,,,,,,2.2,1.4,1.7*23
$QZGSA,A,3,,,,,,,,,,,,,2.2,1.4,1.7*2D
$IMGSA,A,3,,,,,,,,,,,,,2.2,1.4,1.7*22
$BDGSA,A,3,205,223,225,229,230,,,,,,,,2.2,1.4,1.7*19
$GAGSA,A,3,104,109,127,136,,,,,,,,,2.2,1.4,1.7*2D
$GPRMC,133111.00,A,5200.408213,N,00422.281174,E,000.1,204.7,221119,,,A*50
$GPGGA,133112.00,5200.408233,N,00422.281182,E,1,19,0.6,6.9,M,46.8,M,,*69
$GPGSV,3,1,10,07,68,104,20,30,55,183,,05,47,297,35,09,36,083,19*7E
$GPGSV,3,2,10,02,32,240,27,13,17,260,14,06,13,199,,16,10,024,18*70
$GPGSV,3,3,10,23,09,085,17,29,05,310,*77
$GLGSV,2,1,06,65,58,313,33,73,38,044,15,81,23,324,32,75,23,174,15*6D
$GLGSV,2,2,06,71,18,106,13,87,03,234,*60
$BDGSV,2,1,08,225,58,100,17,223,36,177,13,210,32,070,,224,20,043,*6D
$BDGSV,2,2,08,229,11,319,18,205,11,120,,230,07,270,21,220,06,298,*6A
$GAGSV,2,1,08,104,75,289,33,119,43,096,11,121,42,079,13,101,32,146,10*6D
$GAGSV,2,2,08,136,25,305,25,109,21,281,27,127,13,030,22,112,00,204,*66
$GPGSA,A,3,02,05,07,09,13,16,23,,,,,,2.2,1.4,1.7*3C
$GNGSA,A,3,02,05,07,09,13,16,23,,,,,,2.2,1.4,1.7*22
$GNGSA,A,3,65,73,75,81,,,,,,,,,2.2,1.4,1.7*23
$QZGSA,A,3,,,,,,,,,,,,,2.2,1.4,1.7*2D
$IMGSA,A,3,,,,,,,,,,,,,2.2,1.4,1.7*22
$BDGSA,A,3,225,229,230,,,,,,,,,,2.2,1.4,1.7*1D
$GAGSA,A,3,104,109,127,136,,,,,,,,,2.2,1.4,1.7*2D
$GPRMC,133112.00,A,5200.408233,N,00422.281182,E,000.0,204.7,221119,,,A*59
$GPGGA,133113.00,5200.408253,N,00422.281167,E,1,21,0.6,6.9,M,46.8,M,,*6E
$GPGSV,3,1,10,07,68,104,20,30,55,183,13,05,47,297,35,09,36,083,19*7C
$GPGSV,3,2,10,02,32,240,26,13,17,260,14,06,13,199,,16,10,024,19*70
$GPGSV,3,3,10,23,09,085,17,29,05,310,*77
$GLGSV,2,1,06,65,58,313,33,73,38,044,15,81,23,324,32,75,23,174,15*6D
$GLGSV,2,2,06,71,18,106,12,87,03,234,*61
$BDGSV,2,1,08,225,58,100,17,223,36,177,13,210,32,070,,224,20,043,*6D
$BDGSV,2,2,08,229,11,319,18,205,11,120,,230,07,270,21,220,06,298,*6A
$GAGSV,2,1,08,104,75,289,33,119,43,096,11,121,42,079,13,101,32,146,10*6D
$GAGSV,2,2,08,136,25,305,25,109,21,281,27,127,13,030,22,112,00,204,*66
$GPGSA,A,3,02,05,07,09,13,16,23,30,,,,,1.7,1.1,1.3*38
$GNGSA,A,3,02,05,07,09,13,16,23,30,,,,,1.7,1.1,1.3*26
$GNGSA,A,3,65,73,75,81,,,,,,,,,1.7,1.1,1.3*24
$QZGSA,A,3,,,,,,,,,,,,,1.7,1.1,1.3*2A
$IMGSA,A,3,,,,,,,,,,,,,1.7,1.1,1.3*25
$BDGSA,A,3,225,229,230,,,,,,,,,,1.7,1.1,1.3*1A
$GAGSA,A,3,104,109,121,127,136,,,,,,,,1.7,1.1,1.3*18
$GPRMC,133113.00,A,5200.408253,N,00422.281167,E,000.0,204.7,221119,,,A*55
$GPGGA,133114.00,5200.408267,N,00422.281167,E,1,20,0.6,6.9,M,46.8,M,,*6F
$GPGSV,3,1,10,07,68,104,19,30,55,183,,05,47,297,35,09,36,083,19*74
$GPGSV,3,2,10,02,32,240,26,13,17,260,14,06,13,199,16,16,10,024,19*77
$GPGSV,3,3,10,23,09,085,17,29,05,310,*77
$GLGSV,2,1,06,65,58,313,33,73,38,044,16,81,23,324,32,75,23,174,16*6D
$GLGSV,2,2,06,71,18,106,12,87,03,234,*61
$BDGSV,2,1,08,225,58,100,17,223,36,177,13,210,32,070,09,224,20,043,10*65
$BDGSV,2,2,08,229,11,319,18,205,11,120,,230,07,270,21,220,06,298,10*6B
$GAGSV,2,1,08,104,75,289,33,119,43,096,11,121,42,079,13,101,32,146,11*6C
$GAGSV,2,2,08,136,25,305,25,109,21,281,27,127,13,030,22,112,00,204,*66
$GPGSA,A,3,02,05,06,07,09,13,16,23,,,,,1.8,1.3,1.3*30
$GNGSA,A,3,02,05,06,07,09,13,16,23,,,,,1.8,1.3,1.3*2E
$GNGSA,A,3,65,73,75,81,,,,,,,,,1.8,1.3,1.3*29
$QZGSA,A,3,,,,,,,,,,,,,1.8,1.3,1.3*27
$IMGSA,A,3,,,,,,,,,,,,,1.8,1.3,1.3*28
$BDGSA,A,3,225,229,230,,,,,,,,,,1.8,1.3,1.3*17
$GAGSA,A,3,104,109,127,136,,,,,,,,,1.8,1.3,1.3*27
$GPRMC,133114.00,A,5200.408267,N,00422.281167,E,000.2,204.7,221119,,,A*57
$GPGGA,133115.00,5200.408249,N,00422.281203,E,1,18,0.6,6.9,M,46.8,M,,*68
$GPGSV,3,1,10,07,68,104,19,30,55,183,12,05,47,297,35,09,36,083,19*77
$GPGSV,3,2,10,02,32,240,26,13,17,260,15,06,13,199,,16,10,024,19*71
$GPGSV,3,3,10,23,09,085,17,29,05,310,11*77
$GLGSV,2,1,06,65,58,313,33,73,38,044,16,81,23,324,32,75,23,174,16*6D
$GLGSV,2,2,06,71,18,106,12,87,03,234,*61
$BDGSV,2,1,08,225,58,100,16,223,36,177,,210,32,070,,224,20,043,*6E
$BDGSV,2,2,08,229,11,319,18,205,11,120,,230,07,270,20,220,06,298,10*6A
$GAGSV,2,1,08,104,75,289,33,119,43,096,11,121,42,079,13,101,32,146,10*6D
$GAGSV,2,2,08,136,25,305,25,109,21,281,27,127,13,030,22,112,00,204,*66
$GPGSA,A,3,02,05,07,09,13,16,23,,,,,,1.7,1.2,1.2*39
$GNGSA,A,3,02,05,07,09,13,16,23,,,,,,1.7,1.2,1.2*27
$GNGSA,A,3,65,73,75,81,,,,,,,,,1.7,1.2,1.2*26
$QZGSA,A,3,,,,,,,,,,,,,1.7,1.2,1.2*28
$IMGSA,A,3,,,,,,,,,,,,,1.7,1.2,1.2*27
$BDGSA,A,3,225,229,230,,,,,,,,,,1.7,1.2,1.2*18
$GAGSA,A,3,104,109,127,136,,,,,,,,,1.7,1.2,1.2*28
$GPRMC,133115.00,A,5200.408249,N,00422.281203,E,000.0,204.7,221119,,,A*59
$GPGGA,133116.00,5200.408265,N,00422.281181,E,1,22,0.6,7.0,M,46.8,M,,*6D
$GPGSV,3,1,10,07,68,104,19,30,55,183,,05,47,297,35,09,36,083,19*74
$GPGSV,3,2,10,02,32,240,26,13,17,260,15,06,13,199,15,16,10,024,19*75
$GPGSV,3,3,10,23,09,085,17,29,05,310,*77
$GLGSV,2,1,06,65,58,313,33,73,38,044,16,81,23,324,32,75,23,174,19*62
$GLGSV,2,2,06,71,18,106,12,87,03,234,*61
$BDGSV,2,1,08,225,58,100,16,223,36,177,12,210,32,070,09,224,20,043,17*62
$BDGSV,2,2,08,229,11,319,19,205,11,120,19,230,07,270,20,220,06,298,*62
$GAGSV,2,1,08,104,75,289,33,119,43,096,10,121,42,079,12,101,32,146,10*6D
$GAGSV,2,2,08,136,25,305,25,109,21,281,27,127,13,030,21,112,00,204,*65
$GPGSA,A,3,02,05,06,07,09,13,16,23,,,,,1.6,1.1,1.2*3D
$GNGSA,A,3,02,05,06,07,09,13,16,23,,,,,1.6,1.1,1.2*23
$GNGSA,A,3,65,73,75,81,,,,,,,,,1.6,1.1,1.2*24
$QZGSA,A,3,,,,,,,,,,,,,1.6,1.1,1.2*2A
$IMGSA,A,3,,,,,,,,,,,,,1.6,1.1,1.2*25
$BDGSA,A,3,205,224,225,229,230,,,,,,,,1.6,1.1,1.2*19
$GAGSA,A,3,104,109,127,136,,,,,,,,,1.6,1.1,1.2*2A
$GPRMC,133116.00,A,5200.408265,N,00422.281181,E,000.2,204.7,221119,,,A*5F
$GPGGA,133117.00,5200.408253,N,00422.281234,E,1,22,0.6,7.0,M,46.8,M,,*64
$GPGSV,3,1,10,07,68,104,18,30,55,183,,05,47,297,35,09,36,083,18*74
$GPGSV,3,2,10,02,32,240,26,13,17,260,15,06,13,199,20,16,10,024,19*73
$GPGSV,3,3,10,23,09,085,16,29,05,310,15*72
$GLGSV,2,1,06,65,58,313,33,73,38,044,16,81,23,324,32,75,23,174,19*62
$GLGSV,2,2,06,71,18,106,11,87,03,234,*62
$BDGSV,2,1,08,225,58,100,16,223,36,177,12,210,32,070,,224,20,043,16*6A
$BDGSV,2,2,08,229,11,319,19,205,11,120,,230,07,270,20,220,06,298,09*63
$GAGSV,2,1,08,104,75,289,33,119,43,096,,121,42,079,12,101,32,146,10*6C
$GAGSV,2,2,08,136,25,305,25,109,21,281,27,127,13,030,21,112,00,204,*65
$GPGSA,A,3,02,05,06,07,09,13,16,23,29,,,,1.8,1.3,1.2*3A
$GNGSA,A,3,02,05,06,07,09,13,16,23,29,,,,1.8,1.3,1.2*24
$GNGSA,A,3,65,73,75,81,,,,,,,,,1.8,1.3,1.2*28
$QZGSA,A,3,,,,,,,,,,,,,1.8,1.3,1.2*26
$IMGSA,A,3,,,,,,,,,,,,,1.8,1.3,1.2*29
$BDGSA,A,3,225,229,230,,,,,,,,,,1.8,1.3,1.2*16
$GAGSA,A,3,104,109,121,127,136,,,,,,,,1.8,1.3,1.2*14
$GPRMC,133117.00,A,5200.408253,N,00422.281234,E,000.1,204.7,221119,,,A*55
$GPGGA,133118.00,5200.408268,N,00422.281210,E,1,19,0.6,7.0,M,46.8,M,,*6D
$GPGSV,3,1,10,07,68,104,17,30,55,183,,05,47,297,35,09,36,083,18*7B
$GPGSV,3,2,10,02,32,240,26,13,17,260,15,06,13,199,,16,10,024,19*71
$GPGSV,3,3,10,23,09,085,16,29,05,310,*76
$GLGSV,2,1,06,65,58,313,33,73,38,044,16,81,23,324,32,75,23,174,19*62
$GLGSV,2,2,06,71,18,106,11,87,03,234,*62
$BDGSV,2,1,08,225,58,100,17,223,36,177,12,210,32,070,,224,20,043,*6C
$BDGSV,2,2,08,229,11,319,19,205,11,120,,230,07,270,20,220,06,298,*6A
$GAGSV,2,1,08,104,75,289,33,119,43,096,10,121,42,079,12,101,32,146,10*6D
$GAGSV,2,2,08,136,25,305,25,109,21,281,27,127,13,030,21,112,00,204,*65
$GPGSA,A,3,02,05,09,13,16,23,,,,,,,1.9,1.5,1.2*37
$GNGSA,A,3,02,05,09,13,16,23,,,,,,,1.9,1.5,1.2*29
$GNGSA,A,3,65,73,75,81,,,,,,,,,1.9,1.5,1.2*2F
$QZGSA,A,3,,,,,,,,,,,,,1.9,1.5,1.2*21
$IMGSA,A,3,,,,,,,,,,,,,1.9,1.5,1.2*2E
$BDGSA,A,3,225,229,230,,,,,,,,,,1.9,1.5,1.2*11
$GAGSA,A,3,104,109,127,136,,,,,,,,,1.9,1.5,1.2*21
$GPRMC,133118.00,A,5200.408268,N,00422.281210,E,000.2,204.7,221119,,,A*57
$GPGGA,133119.00,5200.408296,N,00422.281212,E,1,21,0.6,7.1,M,46.8,M,,*65
$GPGSV,3,1,10,07,68,104,17,30,55,183,,05,47,297,35,09,36,083,18*7B
$GPGSV,3,2,10,02,32,240,26,13,17,260,15,06,13,199,,16,10,024,20*7B
$GPGSV,3,3,10,23,09,085,16,29,05,310,14*73
$GLGSV,2,1,06,65,58,313,33,73,38,044,15,81,23,324,32,75,23,174,19*61
$GLGSV,2,2,06,71,18,106,11,87,03,234,*62
$BDGSV,2,1,08,225,58,100,17,223,36,177,14,210,32,070,13,224,20,043,*68
$BDGSV,2,2,08,229,11,319,19,205,11,120,,230,07,270,20,220,06,298,10*6B
$GAGSV,2,1,08,104,75,289,33,119,43,096,10,121,42,079,13,101,32,146,11*6D
$GAGSV,2,2,08,136,25,305,25,109,21,281,26,127,13,030,21,112,00,204,*64
$GPGSA,A,3,02,05,09,13,16,23,29,,,,,,2.0,1.4,1.4*31
$GNGSA,A,3,02,05,09,13,16,23,29,,,,,,2.0,1.4,1.4*2F
$GNGSA,A,3,65,73,75,81,,,,,,,,,2.0,1.4,1.4*22
$QZGSA,A,3,,,,,,,,,,,,,2.0,1.4,1.4*2C
$IMGSA,A,3,,,,,,,,,,,,,2.0,1.4,1.4*23
$BDGSA,A,3,210,223,225,229,230,,,,,,,,2.0,1.4,1.4*1C
$GAGSA,A,3,104,109,121,127,136,,,,,,,,2.0,1.4,1.4*1E
$GPRMC,133119.00,A,5200.408296,N,00422.281212,E,000.1,204.7,221119,,,A*56
$GPGGA,133120.00,5200.408320,N,00422.281080,E,1,21,0.6,7.1,M,46.8,M,,*6A
$GPGSV,3,1,10,07,68,104,16,30,55,183,11,05,47,297,35,09,36,083,17*75
$GPGSV,3,2,10,02,32,240,26,13,17,260,15,06,13,199,17,16,10,024,20*7D
$GPGSV,3,3,10,23,09,085,16,29,05,310,*76
$GLGSV,2,1,06,65,58,313,33,73,38,044,15,81,23,324,32,75,23,174,19*61
$GLGSV,2,2,06,71,18,106,11,87,03,234,*62
$BDGSV,2,1,08,225,58,100,16,223,36,177,14,210,32,070,,224,20,043,14*6E
$BDGSV,2,2,08,229,11,319,20,205,11,120,,230,07,270,20,220,06,298,*60
$GAGSV,2,1,08,104,75,289,33,119,43,096,10,121,42,079,15,101,32,146,11*6B
$GAGSV,2,2,08,136,25,305,25,109,21,281,26,127,13,030,20,112,00,204,*65
$GPGSA,A,3,02,05,06,09,13,16,23,,,,,,1.8,1.2,1.4*31
$GNGSA,A,3,02,05,06,09,13,16,23,,,,,,1.8,1.2,1.4*2F
$GNGSA,A,3,65,73,75,81,,,,,,,,,1.8,1.2,1.4*2F
$QZGSA,A,3,,,,,,,,,,,,,1.8,1.2,1.4*21
$IMGSA,A,3,,,,,,,,,,,,,1.8,1.2,1.4*2E
$BDGSA,A,3,223,225,229,230,,,,,,,,,1.8,1.2,1.4*22
$GAGSA,A,3,104,109,121,127,136,,,,,,,,1.8,1.2,1.4*13
$GPRMC,133120.00,A,5200.408320,N,00422.281080,E,000.2,204.7,221119,,,A*5A
$GPGGA,133121.00,5200.408317,N,00422.281054,E,1,19,0.6,7.1,M,46.8,M,,*6D
$GPGSV,3,1,10,07,68,104,15,30,55,183,18,05,47,297,36,09,36,083,17*7C
$GPGSV,3,2,10,02,32,240,26,13,17,260,16,06,13,199,,16,10,024,20*78
$GPGSV,3,3,10,23,09,085,16,29,05,310,*76
$GLGSV,2,1,06,65,58,313,33,73,38,044,15,81,23,324,32,75,23,174,19*61
$GLGSV,2,2,06,71,18,106,10,87,03,234,*63
$BDGSV,2,1,08,225,58,100,16,223,36,177,14,210,32,070,,224,20,043,13*69
$BDGSV,2,2,08,229,11,319,21,205,11,120,,230,07,270,20,220,06,298,12*62
$GAGSV,2,1,08,104,75,289,33,119,43,096,09,121,42,079,15,101,32,146,11*63
$GAGSV,2,2,08,136,25,305,25,109,21,281,26,127,13,030,20,112,00,204,*65
$GPGSA,A,3,02,05,09,13,16,23,30,,,,,,1.4,0.9,1.1*37
$GNGSA,A,3,02,05,09,13,16,23,30,,,,,,1.4,0.9,1.1*29
$GNGSA,A,3,65,73,75,81,,,,,,,,,1.4,0.9,1.1*2C
$QZGSA,A,3,,,,,,,,,,,,,1.4,0.9,1.1*22
$IMGSA,A,3,,,,,,,,,,,,,1.4,0.9,1.1*2D
$BDGSA,A,3,225,229,230,,,,,,,,,,1.4,0.9,1.1*12
$GAGSA,A,3,104,109,121,127,136,,,,,,,,1.4,0.9,1.1*10
$GPRMC,133121.00,A,5200.408317,N,00422.281054,E,000.2,204.7,221119,,,A*56
$GPGGA,133122.00,5200.408309,N,00422.281078,E,1,22,0.6,7.1,M,46.8,M,,*67
$GPGSV,3,1,10,07,68,104,15,30,55,183,,05,47,297,36,09,36,083,16*74
$GPGSV,3,2,10,02,32,240,26,13,17,260,16,06,13,199,16,16,10,024,20*7F
$GPGSV,3,3,10,23,09,085,16,29,05,310,*76
$GLGSV,2,1,06,65,58,313,33,73,38,044,15,81,23,324,32,75,23,174,19*61
$GLGSV,2,2,06,71,18,106,10,87,03,234,*63
$BDGSV,2,1,08,225,58,100,16,223,36,177,14,210,32,070,12,224,20,043,*68
$BDGSV,2,2,08,229,11,319,21,205,11,120,,230,07,270,20,220,06,298,12*62
$GAGSV,2,1,08,104,75,289,33,119,43,096,,121,42,079,15,101,32,146,11*6A
$GAGSV,2,2,08,136,25,305,25,109,21,281,30,127,13,030,20,112,00,204,*62
$GPGSA,A,3,02,05,06,09,13,16,23,,,,,,1.5,1.0,1.1*3B
$GNGSA,A,3,02,05,06,09,13,16,23,,,,,,1.5,1.0,1.1*25
$GNGSA,A,3,65,73,75,81,,,,,,,,,1.5,1.0,1.1*25
$QZGSA,A,3,,,,,,,,,,,,,1.5,1.0,1.1*2B
$IMGSA,A,3,,,,,,,,,,,,,1.5,1.0,1.1*24
$BDGSA,A,3,220,225,229,230,,,,,,,,,1.5,1.0,1.1*2B
$GAGSA,A,3,104,109,121,127,136,,,,,,,,1.5,1.0,1.1*19
$GPRMC,133122.00,A,5200.408309,N,00422.281078,E,000.0,204.7,221119,,,A*56
$GPGGA,133123.00,5200.408307,N,00422.281075,E,1,24,0.6,7.2,M,46.8,M,,*60
$GPGSV,3,1,10,07,68,104,14,30,55,183,17,05,47,297,36,09,36,083,16*73
$GPGSV,3,2,10,02,32,240,26,13,17,260,16,06,13,199,19,16,10,024,20*70
$GPGSV,3,3,10,23,09,085,16,29,05,310,15*72
$GLGSV,2,1,06,65,58,313,33,73,38,044,14,81,23,324,32,75,23,174,19*60
$GLGSV,2,2,06,71,18,106,10,87,03,234,*63
$BDGSV,2,1,08,225,58,100,16,223,36,177,13,210,32,070,17,224,20,043,*6A
$BDGSV,2,2,08,229,11,319,21,205,11,120,15,230,07,270,20,220,06,298,12*66
$GAGSV,2,1,08,104,75,289,33,119,43,096,,121,42,079,16,101,32,146,11*69
$GAGSV,2,2,08,136,25,305,25,109,21,281,29,127,13,030,20,112,00,204,*6A
$GPGSA,A,3,02,05,06,09,13,16,23,29,30,,,,1.9,1.5,1.2*39
$GNGSA,A,3,02,05,06,09,13,16,23,29,30,,,,1.9,1.5,1.2*27
$GNGSA,A,3,65,75,81,,,,,,,,,,1.9,1.5,1.2*2B
$QZGSA,A,3,,,,,,,,,,,,,1.9,1.5,1.2*21
$IMGSA,A,3,,,,,,,,,,,,,1.9,1.5,1.2*2E
$BDGSA,A,3,205,210,223,225,229,230,,,,,,,1.9,1.5,1.2*26
$GAGSA,A,3,104,109,121,127,136,,,,,,,,1.9,1.5,1.2*13
$GPRMC,133123.00,A,5200.408307,N,00422.281075,E,000.0,204.7,221119,,,A*54
$GPGGA,133124.00,5200.408311,N,00422.281058,E,1,21,0.6,7.2,M,46.8,M,,*6A
$GPGSV,3,1,10,07,68,104,14,30,55,183,17,05,47,297,36,09,36,083,16*73
$GPGSV,3,2,10,02,32,240,27,13,17,260,16,06,13,199,,16,10,024,20*79
$GPGSV,3,3,10,23,09,085,16,29,05,310,*76
$GLGSV,2,1,06,65,58,314,33,73,38,044,14,81,23,324,32,75,23,174,19*67
$GLGSV,2,2,06,71,18,106,10,87,03,234,*63
$BDGSV,2,1,08,225,58,100,16,223,36,177,13,210,32,070,,224,20,043,*6C
$BDGSV,2,2,08,229,11,319,21,205,11,120,16,230,07,270,21,220,06,298,12*64
$GAGSV,2,1,08,104,75,289,33,119,43,096,09,121,42,079,16,101,32,146,11*60
$GAGSV,2,2,08,136,25,305,26,109,21,281,29,127,13,030,20,112,00,204,*69
$GPGSA,A,3,02,05,09,13,16,23,30,,,,,,1.9,1.4,1.3*34
$GNGSA,A,3,02,05,09,13,16,23,30,,,,,,1.9,1.4,1.3*2A
$GNGSA,A,3,65,75,81,,,,,,,,,,1.9,1.4,1.3*2B
$QZGSA,A,3,,,,,,,,,,,,,1.9,1.4,1.3*21
$IMGSA,A,3,,,,,,,,,,,,,1.9,1.4,1.3*2E
$BDGSA,A,3,205,223,225,229,230,,,,,,,,1.9,1.4,1.3*15
$GAGSA,A,3,104,109,121,127,136,,,,,,,,1.9,1.4,1.3*13
$GPRMC,133124.00,A,5200.408311,N,00422.281058,E,000.0,204.7,221119,,,A*5B
$GPGGA,133125.00,5200.408311,N,00422.281038,E,1,18,0.6,7.2,M,46.8,M,,*67
$GPGSV,3,1,10,07,68,104,14,30,55,183,17,05,47,297,36,09,36,083,16*73
$GPGSV,3,2,10,02,32,240,27,13,17,260,16,06,13,199,,16,10,024,20*79
$GPGSV,3,3,10,23,09,085,15,29,05,310,*75
$GLGSV,2,1,06,65,58,314,33,73,38,044,14,81,23,324,32,75,23,174,19*67
$GLGSV,2,2,06,71,18,106,11,87,03,234,*62
$BDGSV,2,1,08,225,58,100,16,223,36,177,13,210,32,070,,224,20,043,*6C
$BDGSV,2,2,08,229,11,319,21,205,11,120,,230,07,270,20,220,06,298,11*61
$GAGSV,2,1,08,104,75,289,33,119,43,096,10,121,42,079,16,101,32,146,11*68
$GAGSV,2,2,08,136,25,305,26,109,21,281,28,127,13,030,20,112,00,204,*68
$GPGSA,A,3,02,05,09,13,16,23,,,,,,,1.5,1.1,1.1*3C
$GNGSA,A,3,02,05,09,13,16,23,,,,,,,1.5,1.1,1.1*22
$GNGSA,A,3,65,75,81,,,,,,,,,,1.5,1.1,1.1*20
$QZGSA,A,3,,,,,,,,,,,,,1.5,1.1,1.1*2A
$IMGSA,A,3,,,,,,,,,,,,,1.5,1.1,1.1*25
$BDGSA,A,3,223,225,229,230,,,,,,,,,1.5,1.1,1.1*29
$GAGSA,A,3,104,109,121,127,136,,,,,,,,1.5,1.1,1.1*18
$GPRMC,133125.00,A,5200.408311,N,00422.281038,E,000.1,204.7,221119,,,A*5D
$GPGGA,133126.00,5200.408304,N,00422.281048,E,1,21,0.6,7.2,M,46.8,M,,*6D
$GPGSV,3,1,10,07,68,104,13,30,55,183,17,05,48,297,36,09,36,083,15*78
$GPGSV,3,2,10,02,32,240,27,13,17,260,15,06,13,199,,16,10,024,20*7A
$GPGSV,3,3,10,23,09,085,15,29,05,310,13*77
$GLGSV,2,1,06,65,58,314,33,73,38,044,13,81,23,324,32,75,23,174,18*61
$GLGSV,2,2,06,71,18,106,12,87,03,234,*61
$BDGSV,2,1,08,225,58,100,15,223,36,177,13,210,32,070,15,224,20,043,*6B
$BDGSV,2,2,08,229,11,319,21,205,11,120,,230,07,270,20,220,06,298,13*63
$GAGSV,2,1,08,104,75,289,32,119,43,096,11,121,42,079,16,101,32,146,11*68
$GAGSV,2,2,08,136,25,305,25,109,21,281,28,127,13,030,20,112,00,204,*6B
$GPGSA,A,3,02,05,09,13,16,23,30,,,,,,1.9,1.5,1.2*34
$GNGSA,A,3,02,05,09,13,16,23,30,,,,,,1.9,1.5,1.2*2A
$GNGSA,A,3,65,71,75,81,,,,,,,,,1.9,1.5,1.2*2D
$QZGSA,A,3,,,,,,,,,,,,,1.9,1.5,1.2*21
$IMGSA,A,3,,,,,,,,,,,,,1.9,1.5,1.2*2E
$BDGSA,A,3,210,220,225,229,230,,,,,,,,1.9,1.5,1.2*12
$GAGSA,A,3,104,109,121,127,136,,,,,,,,1.9,1.5,1.2*13
$GPRMC,133126.00,A,5200.408304,N,00422.281048,E,000.0,204.7,221119,,,A*5C
$GPGGA,133127.00,5200.408305,N,00422.281034,E,1,21,0.6,7.2,M,46.8,M,,*66
$GPGSV,3,1,10,07,68,104,13,30,55,183,17,05,48,297,36,09,36,083,15*78
$GPGSV,3,2,10,02,32,240,27,13,17,260,15,06,13,199,,16,10,024,20*7A
$GPGSV,3,3,10,23,09,085,15,29,05,310,*75
$GLGSV,2,1,06,65,58,314,33,73,38,044,13,81,23,324,32,75,23,174,18*61
$GLGSV,2,2,06,71,18,106,12,87,03,234,*61
$BDGSV,2,1,08,225,58,100,15,223,36,177,13,210,32,070,14,224,20,043,*6A
$BDGSV,2,2,08,229,11,319,21,205,11,120,,230,07,270,20,220,06,298,13*63
$GAGSV,2,1,08,104,76,289,32,119,43,096,12,121,42,079,16,101,32,146,11*68
$GAGSV,2,2,08,136,25,305,25,109,21,281,28,127,13,030,19,112,00,204,*61
$GPGSA,A,3,02,05,07,09,13,16,23,30,,,,,1.9,1.4,1.3*33
$GNGSA,A,3,02,05,07,09,13,16,23,30,,,,,1.9,1.4,1.3*2D
$GNGSA,A,3,65,71,75,81,,,,,,,,,1.9,1.4,1.3*2D
$QZGSA,A,3,,,,,,,,,,,,,1.9,1.4,1.3*21
$IMGSA,A,3,,,,,,,,,,,,,1.9,1.4,1.3*2E
$BDGSA,A,3,225,229,230,,,,,,,,,,1.9,1.4,1.3*11
$GAGSA,A,3,104,109,121,127,136,,,,,,,,1.9,1.4,1.3*13
$GPRMC,133127.00,A,5200.408305,N,00422.281034,E,000.2,204.7,221119,,,A*55
$GPGGA,133128.00,5200.408298,N,00422.281057,E,1,20,0.6,7.2,M,46.8,M,,*68
$GPGSV,3,1,10,07,68,104,13,30,55,183,17,05,48,297,36,09,36,083,15*78
$GPGSV,3,2,10,02,32,240,27,13,17,260,15,06,13,199,16,16,10,024,20*7D
$GPGSV,3,3,10,23,09,085,15,29,05,310,*75
$GLGSV,2,1,06,65,58,314,33,73,38,044,12,81,23,324,32,75,23,174,18*60
$GLGSV,2,2,06,71,18,106,12,87,03,234,*61
$BDGSV,2,1,08,225,58,100,15,223,36,177,13,210,32,070,,224,20,043,*6F
$BDGSV,2,2,08,229,11,319,21,205,11,120,,230,07,270,20,220,06,298,13*63
$GAGSV,2,1,08,104,76,289,32,119,43,096,12,121,42,079,16,101,32,146,11*68
$GAGSV,2,2,08,136,25,305,25,109,21,281,27,127,13,030,19,112,00,204,*6E
$GPGSA,A,3,02,05,06,07,09,13,16,23,30,,,,1.8,1.3,1.2*32
$GNGSA,A,3,02,05,06,07,09,13,16,23,30,,,,1.8,1.3,1.2*2C
$GNGSA,A,3,65,75,81,,,,,,,,,,1.8,1.3,1.2*2C
$QZGSA,A,3,,,,,,,,,,,,,1.8,1.3,1.2*26
$IMGSA,A,3,,,,,,,,,,,,,1.8,1.3,1.2*29
$BDGSA,A,3,225,229,230,,,,,,,,,,1.8,1.3,1.2*16
$GAGSA,A,3,104,109,121,127,136,,,,,,,,1.8,1.3,1.2*14
$GPRMC,133128.00,A,5200.408298,N,00422.281057,E,000.1,204.7,221119,,,A*59
$GPGGA,133129.00,5200.408296,N,00422.281013,E,1,21,0.6,7.2,M,46.8,M,,*66
$GPGSV,3,1,10,07,68,104,14,30,55,183,17,05,48,297,36,09,36,083,15*7F
$GPGSV,3,2,10,02,32,240,27,13,17,260,15,06,13,199,,16,10,024,20*7A
$GPGSV,3,3,10,23,09,085,15,29,05,310,18*7C
$GLGSV,2,1,06,65,58,314,33,73,38,044,,81,23,324,32,75,23,174,18*63
$GLGSV,2,2,06,71,18,106,12,87,03,234,*61
$BDGSV,2,1,08,225,58,100,15,223,36,177,12,210,32,070,,224,20,043,11*6E
$BDGSV,2,2,08,229,11,319,21,205,11,120,,230,07,270,20,220,06,298,12*62
$GAGSV,2,1,08,104,76,289,32,119,43,096,12,121,42,079,16,101,32,146,11*68
$GAGSV,2,2,08,136,25,305,25,109,21,281,27,127,13,030,19,112,00,204,*6E
$GPGSA,A,3,02,05,07,09,13,16,23,29,30,,,,1.8,1.4,1.2*38
$GNGSA,A,3,02,05,07,09,13,16,23,29,30,,,,1.8,1.4,1.2*26
$GNGSA,A,3,65,75,81,,,,,,,,,,1.8,1.4,1.2*2B
$QZGSA,A,3,,,,,,,,,,,,,1.8,1.4,1.2*21
$IMGSA,A,3,,,,,,,,,,,,,1.8,1.4,1.2*2E
$BDGSA,A,3,225,229,230,,,,,,,,,,1.8,1.4,1.2*11
$GAGSA,A,3,104,109,121,127,136,,,,,,,,1.8,1.4,1.2*13
$GPRMC,133129.00,A,5200.408296,N,00422.281013,E,000.1,204.7,221119,,,A*56
$GPGGA,133130.00,5200.408288,N,00422.280999,E,1,22,0.6,7.2,M,46.8,M,,*68
$GPGSV,3,1,10,07,68,104,13,30,55,183,17,05,48,297,36,09,36,083,14*79
$GPGSV,3,2,10,02,32,240,28,13,17,260,15,06,13,199,16,16,10,024,20*72
$GPGSV,3,3,10,23,09,085,15,29,05,310,17*73
$GLGSV,2,1,06,65,58,314,32,73,38,043,13,81,23,324,32,75,23,174,18*67
$GLGSV,2,2,06,71,18,106,12,87,03,234,*61
$BDGSV,2,1,08,225,58,100,15,223,36,177,,210,32,070,,224,20,043,14*68
$BDGSV,2,2,08,229,11,319,21,205,11,120,,230,07,270,20,220,06,298,12*62
$GAGSV,2,1,08,104,76,289,32,119,43,096,12,121,42,079,16,101,32,146,11*68
$GAGSV,2,2,08,136,25,305,25,109,21,281,27,127,13,030,19,112,00,204,*6E
$GPGSA,A,3,02,05,06,07,13,16,23,30,,,,,1.8,1.2,1.3*3B
$GNGSA,A,3,02,05,06,07,13,16,23,30,,,,,1.8,1.2,1.3*25
$GNGSA,A,3,65,73,75,81,,,,,,,,,1.8,1.2,1.3*28
$QZGSA,A,3,,,,,,,,,,,,,1.8,1.2,1.3*26
$IMGSA,A,3,,,,,,,,,,,,,1.8,1.2,1.3*29
$BDGSA,A,3,224,225,229,230,,,,,,,,,1.8,1.2,1.3*22
$GAGSA,A,3,104,109,121,127,136,,,,,,,,1.8,1.2,1.3*14
$GPRMC,133130.00,A,5200.408288,N,00422.280999,E,000.0,204.7,221119,,,A*5A
$GPGGA,133131.00,5200.408286,N,00422.280971,E,1,24,0.6,7.2,M,46.8,M,,*67
$GPGSV,3,1,10,07,68,104,13,30,55,183,17,05,48,297,36,09,36,083,14*79
$GPGSV,3,2,10,02,32,240,28,13,17,260,15,06,13,199,17,16,10,024,19*79
$GPGSV,3,3,10,23,09,085,15,29,05,310,*75
$GLGSV,2,1,06,65,58,314,32,73,38,043,,81,23,324,32,75,23,174,18*65
$GLGSV,2,2,06,71,18,106,12,87,03,234,*61
$BDGSV,2,1,08,225,58,100,16,223,36,177,11,210,32,070,14,224,20,043,14*6E
$BDGSV,2,2,08,229,11,319,21,205,11,120,16,230,07,270,20,220,06,298,12*65
$GAGSV,2,1,08,104,76,289,32,119,43,096,12,121,42,079,16,101,32,146,11*68
$GAGSV,2,2,08,136,25,305,25,109,21,281,27,127,13,030,19,112,00,204,*6E
$GPGSA,A,3,02,05,06,07,13,16,23,30,,,,,2.2,1.4,1.7*30
$GNGSA,A,3,02,05,06,07,13,16,23,30,,,,,2.2,1.4,1.7*2E
$GNGSA,A,3,65,75,81,,,,,,,,,,2.2,1.4,1.7*27
$QZGSA,A,3,,,,,,,,,,,,,2.2,1.4,1.7*2D
$IMGSA,A,3,,,,,,,,,,,,,2.2,1.4,1.7*22
$BDGSA,A,3,205,210,224,225,229,230,,,,,,,2.2,1.4,1.7*2D
$GAGSA,A,3,104,109,119,121,127,136,,,,,,,2.2,1.4,1.7*26
$GPRMC,133131.00,A,5200.408286,N,00422.280971,E,000.0,204.7,221119,,,A*53
$GPGGA,133132.00,5200.408277,N,00422.280933,E,1,20,0.6,7.2,M,46.8,M,,*68
$GPGSV,3,1,10,07,68,104,14,30,55,183,17,05,48,297,36,09,36,083,14*7E
$GPGSV,3,2,10,02,32,240,28,13,17,260,15,06,13,199,,16,10,024,19*7F
$GPGSV,3,3,10,23,09,085,15,29,05,310,*75
$GLGSV,2,1,06,65,58,314,32,73,38,043,14,81,23,324,32,75,23,174,17*6F
$GLGSV,2,2,06,71,18,106,12,87,03,234,*61
$BDGSV,2,1,08,225,58,100,16,223,36,177,,210,32,070,,224,20,043,14*6B
$BDGSV,2,2,08,229,11,319,22,205,11,120,,230,07,270,20,220,06,298,12*61
$GAGSV,2,1,08,104,76,289,32,119,43,096,12,121,42,079,16,101,32,146,10*69
$GAGSV,2,2,08,136,25,305,25,109,21,281,26,127,13,030,19,112,00,204,*6F
$GPGSA,A,3,02,05,07,13,16,23,30,,,,,,2.5,1.7,1.8*3D
$GNGSA,A,3,02,05,07,13,16,23,30,,,,,,2.5,1.7,1.8*23
$GNGSA,A,3,65,73,75,81,,,,,,,,,2.5,1.7,1.8*28
$QZGSA,A,3,,,,,,,,,,,,,2.5,1.7,1.8*26
$IMGSA,A,3,,,,,,,,,,,,,2.5,1.7,1.8*29
$BDGSA,A,3,224,225,229,230,,,,,,,,,2.5,1.7,1.8*22
$GAGSA,A,3,104,109,121,127,136,,,,,,,,2.5,1.7,1.8*14
$GPRMC,133132.00,A,5200.408277,N,00422.280933,E,000.0,204.7,221119,,,A*58
$GPGGA,133133.00,5200.408282,N,00422.280870,E,1,23,0.6,7.2,M,46.8,M,,*66
$GPGSV,3,1,10,07,68,103,15,30,55,183,17,05,48,297,36,09,36,083,13*7F
$GPGSV,3,2,10,02,32,240,28,13,17,260,16,06,13,199,,16,10,024,19*7C
$GPGSV,3,3,10,23,09,085,15,29,05,310,*75
$GLGSV,2,1,06,65,58,314,32,73,38,043,17,81,23,324,31,75,23,174,17*6F
$GLGSV,2,2,06,71,18,106,12,87,03,234,*61
$BDGSV,2,1,08,225,58,100,16,223,36,177,11,210,32,070,,224,20,043,14*6B
$BDGSV,2,2,08,229,11,319,22,205,11,120,,230,07,270,20,220,06,298,12*61
$GAGSV,2,1,08,104,76,289,32,119,43,096,12,121,42,079,16,101,32,146,10*69
$GAGSV,2,2,08,136,25,305,25,109,21,281,26,127,13,030,19,112,00,204,*6F
$GPGSA,A,3,02,05,07,13,16,23,30,,,,,,1.7,1.1,1.2*30
$GNGSA,A,3,02,05,07,13,16,23,30,,,,,,1.7,1.1,1.2*2E
$GNGSA,A,3,65,73,75,81,,,,,,,,,1.7,1.1,1.2*25
$QZGSA,A,3,,,,,,,,,,,,,1.7,1.1,1.2*2B
$IMGSA,A,3,,,,,,,,,,,,,1.7,1.1,1.2*24
$BDGSA,A,3,220,224,225,229,230,,,,,,,,1.7,1.1,1.2*1F
$GAGSA,A,3,104,109,121,127,136,,,,,,,,1.7,1.1,1.2*19
$GPRMC,133133.00,A,5200.408282,N,00422.280870,E,000.0,204.7,221119,,,A*55
$GPGGA,133134.00,5200.408267,N,00422.280842,E,1,23,0.6,7.3,M,46.8,M,,*6A
