$GPGGA,120037.15,,,,,0,00,999.9,,M,,M,,*65
$GPGSV,3,1,11,03,,,,02,,,,06,,,,05,,,*79
$GPGSV,3,2,11,09,,,,07,,,,23,,,,16,,,*70
$GPGSV,3,3,11,29,,,,26,,,,30,,,*75
$GLGSV,2,1,06,70,,,,80,,,,73,,,,87,,,*64
$GLGSV,2,2,06,65,,,,71,,,*66
$QZGSV,1,1,01,02,,,*66
$BDGSV,3,1,09,209,,,,205,,,,224,,,,210,,,*68
$BDGSV,3,2,09,226,,,,225,,,,229,,,,227,,,*6D
$BDGSV,3,3,09,230,,,*50
$GAGSV,2,1,08,104,,,,118,,,,112,,,,121,,,*6E
$GAGSV,2,2,08,119,,,,130,,,,127,,,,136,,,*6B
$GPGSA,A,1,,,,,,,,,,,,,140.0,99.0,99.0*35
$GNGSA,A,1,,,,,,,,,,,,,140.0,99.0,99.0*2B
$QZGSA,A,1,,,,,,,,,,,,,140.0,99.0,99.0*29
$IMGSA,A,1,,,,,,,,,,,,,140.0,99.0,99.0*26
$BDGSA,A,1,,,,,,,,,,,,,140.0,99.0,99.0*24
$GAGSA,A,1,,,,,,,,,,,,,140.0,99.0,99.0*24
$GPRMC,120037.15,V,,,,,,,221119,,,N*76
$GPGGA,120038.15,,,,,0,00,999.9,,M,,M,,*6A
$GPGSV,3,1,11,09,76,072,28,06,52,221,27,23,45,069,29,02,44,290,32*75
$GPGSV,3,2,11,07,40,165,25,30,13,187,,03,13,115,,16,12,061,*76
$GPGSV,3,3,11,26,11,035,,05,10,295,,29,07,345,*4F
$GLGSV,2,1,06,71,55,065,27,87,41,268,36,73,39,107,,80,25,032,*65
$GLGSV,2,2,06,65,18,280,,70,08,087,*63
$QZGSV,1,1,01,02,04,032,*53
$BDGSV,3,1,09,224,39,075,,225,33,146,,230,23,302,,227,22,246,*6F
$BDGSV,3,2,09,210,20,081,,205,11,120,,226,11,031,,209,07,065,*67
$BDGSV,3,3,09,229,02,348,*65
$GAGSV,2,1,08,119,73,071,,104,45,263,,112,33,215,,127,25,057,*6E
$GAGSV,2,2,08,121,23,114,,136,12,331,,118,11,291,,130,04,012,*66
$GPGSA,A,1,,,,,,,,,,,,,140.0,99.0,99.0*35
$GNGSA,A,1,,,,,,,,,,,,,140.0,99.0,99.0*2B
$QZGSA,A,1,,,,,,,,,,,,,140.0,99.0,99.0*29
$IMGSA,A,1,,,,,,,,,,,,,140.0,99.0,99.0*26
$BDGSA,A,1,,,,,,,,,,,,,140.0,99.0,99.0*24
$GAGSA,A,1,,,,,,,,,,,,,140.0,99.0,99.0*24
$GPRMC,120038.15,V,,,,,,,221119,,,N*79
$GPGGA,120039.14,5200.157047,N,00422.551575,E,1,07,4.8,51.3,M,46.8,M,,*53
$GPGSV,3,1,11,09,76,072,32,06,52,221,29,23,45,069,32,02,44,290,34*7C
$GPGSV,3,2,11,07,40,165,25,30,13,187,,03,13,115,,16,12,061,*76
$GPGSV,3,3,11,26,11,035,,05,10,295,,29,07,345,*4F
$GLGSV,2,1,06,71,55,065,27,87,41,268,36,73,39,107,,80,25,032,*65
$GLGSV,2,2,06,65,18,280,,70,08,087,*63
$QZGSV,1,1,01,02,04,032,*53
$BDGSV,3,1,09,224,39,075,,225,33,146,,230,23,302,,227,22,246,*6F
$BDGSV,3,2,09,210,20,081,,205,11,120,,226,11,031,,209,07,065,*67
$BDGSV,3,3,09,229,02,348,*65
$GAGSV,2,1,08,119,73,071,,104,45,263,,112,33,215,,127,25,057,*6E
$GAGSV,2,2,08,121,23,114,,136,12,331,,118,11,291,,130,04,012,*66
$GPGSA,A,3,02,06,07,09,23,,,,,,,,4.2,1.4,4.0*3E
$GNGSA,A,3,02,06,07,09,23,,,,,,,,4.2,1.4,4.0*20
$GNGSA,A,3,71,87,,,,,,,,,,,4.2,1.4,4.0*22
$QZGSA,A,3,,,,,,,,,,,,,4.2,1.4,4.0*29
$IMGSA,A,3,,,,,,,,,,,,,4.2,1.4,4.0*26
$BDGSA,A,3,,,,,,,,,,,,,4.2,1.4,4.0*24
$GAGSA,A,3,,,,,,,,,,,,,4.2,1.4,4.0*24
$GPRMC,120039.14,A,5200.157047,N,00422.551575,E,002.4,183.2,221119,,,A*51
$GPGGA,120040.15,5200.156281,N,00422.550333,E,1,08,3.2,47.2,M,46.8,M,,*54
$GPGSV,3,1,11,09,76,072,32,06,52,221,29,23,45,069,33,02,44,290,34*7D
$GPGSV,3,2,11,07,40,165,25,30,13,187,,03,13,115,,16,12,061,*76
$GPGSV,3,3,11,26,11,035,,05,10,295,,29,07,345,*4F
$GLGSV,2,1,06,71,55,065,27,87,41,268,36,73,39,106,,80,25,032,*64
$GLGSV,2,2,06,65,18,280,,70,08,087,*63
$QZGSV,1,1,01,02,04,032,*53
$BDGSV,3,1,09,224,39,075,,225,33,146,,230,23,302,,227,22,246,*6F
$BDGSV,3,2,09,210,20,081,,205,11,120,,226,11,031,,209,07,065,*67
$BDGSV,3,3,09,229,02,348,*65
$GAGSV,2,1,08,104,45,263,34,112,33,215,31,119,73,071,,127,25,057,*6B
$GAGSV,2,2,08,121,23,114,,136,12,331,,118,11,291,,130,04,012,*66
$GPGSA,A,3,02,06,07,09,23,,,,,,,,4.2,1.4,4.0*3E
$GNGSA,A,3,02,06,07,09,23,,,,,,,,4.2,1.4,4.0*20
$GNGSA,A,3,71,87,,,,,,,,,,,4.2,1.4,4.0*22
$QZGSA,A,3,,,,,,,,,,,,,4.2,1.4,4.0*29
$IMGSA,A,3,,,,,,,,,,,,,4.2,1.4,4.0*26
$BDGSA,A,3,,,,,,,,,,,,,4.2,1.4,4.0*24
$GAGSA,A,3,104,,,,,,,,,,,,4.2,1.4,4.0*11
$GPRMC,120040.15,A,5200.156281,N,00422.550333,E,003.0,172.2,221119,,,A*59
$GPGGA,120041.13,5200.156611,N,00422.552879,E,1,11,1.6,30.6,M,46.8,M,,*53
$GPGSV,3,1,11,09,76,072,32,06,52,221,29,23,45,069,33,02,44,290,35*7C
$GPGSV,3,2,11,07,40,165,25,16,12,061,18,30,13,187,,03,13,115,*7F
$GPGSV,3,3,11,26,11,035,,05,10,295,,29,07,345,*4F
$GLGSV,2,1,06,71,55,065,27,87,41,268,36,73,39,106,23,80,25,032,*65
$GLGSV,2,2,06,65,18,280,,70,08,087,*63
$QZGSV,1,1,01,02,04,032,*53
$BDGSV,3,1,09,227,22,246,29,224,39,075,,225,33,146,,230,23,302,*64
$BDGSV,3,2,09,210,20,081,,226,11,031,,205,11,120,,209,07,065,*67
$BDGSV,3,3,09,229,02,348,*65
$GAGSV,2,1,08,104,45,263,34,112,33,215,31,119,73,071,,127,25,057,*6B
$GAGSV,2,2,08,121,23,114,,136,12,331,,118,11,291,,130,04,012,*66
$GPGSA,A,3,02,06,07,09,23,,,,,,,,2.8,1.2,2.6*34
$GNGSA,A,3,02,06,07,09,23,,,,,,,,2.8,1.2,2.6*2A
$GNGSA,A,3,71,73,87,,,,,,,,,,2.8,1.2,2.6*2C
$QZGSA,A,3,,,,,,,,,,,,,2.8,1.2,2.6*23
$IMGSA,A,3,,,,,,,,,,,,,2.8,1.2,2.6*2C
$BDGSA,A,3,227,,,,,,,,,,,,2.8,1.2,2.6*19
$GAGSA,A,3,104,112,,,,,,,,,,,2.8,1.2,2.6*29
$GPRMC,120041.13,A,5200.156611,N,00422.552879,E,000.3,117.8,221119,,,A*5D
$GPGGA,120042.14,5200.154947,N,00422.556706,E,1,12,0.8,16.5,M,46.8,M,,*51
$GPGSV,3,1,11,09,76,072,32,06,52,221,29,23,45,069,33,02,44,290,35*7C
$GPGSV,3,2,11,07,40,165,27,16,12,061,18,30,13,187,,03,13,115,*7D
$GPGSV,3,3,11,26,11,035,,05,10,295,,29,07,345,*4F
$GLGSV,2,1,06,71,55,065,28,87,41,268,36,73,39,106,23,80,25,032,*6A
$GLGSV,2,2,06,65,18,280,,70,08,087,*63
$QZGSV,1,1,01,02,04,032,*53
$BDGSV,3,1,09,230,23,302,26,227,22,246,29,224,39,075,,225,33,146,*60
$BDGSV,3,2,09,210,20,081,,226,11,031,,205,11,120,,209,07,065,*67
$BDGSV,3,3,09,229,02,348,*65
$GAGSV,2,1,08,104,45,263,35,112,33,215,30,119,73,071,,127,25,057,*6B
$GAGSV,2,2,08,121,23,114,,136,12,331,,118,11,291,,130,04,012,*66
$GPGSA,A,3,02,06,07,09,23,,,,,,,,2.3,1.0,2.1*3A
$GNGSA,A,3,02,06,07,09,23,,,,,,,,2.3,1.0,2.1*24
$GNGSA,A,3,71,73,87,,,,,,,,,,2.3,1.0,2.1*22
$QZGSA,A,3,,,,,,,,,,,,,2.3,1.0,2.1*2D
$IMGSA,A,3,,,,,,,,,,,,,2.3,1.0,2.1*22
$BDGSA,A,3,227,230,,,,,,,,,,,2.3,1.0,2.1*26
$GAGSA,A,3,104,112,,,,,,,,,,,2.3,1.0,2.1*27
$GPRMC,120042.14,A,5200.154947,N,00422.556706,E,000.5,176.2,221119,,,A*5F
$GPGGA,120043.14,5200.155426,N,00422.557481,E,1,12,1.2,17.8,M,46.8,M,,*51
$GPGSV,3,1,11,09,76,072,31,06,52,221,29,23,45,069,32,02,44,290,35*7E
$GPGSV,3,2,11,07,40,165,28,16,12,061,19,30,13,187,,03,13,115,*73
$GPGSV,3,3,11,26,11,035,,05,10,295,,29,07,345,*4F
$GLGSV,2,1,06,71,55,065,28,87,41,268,36,73,39,106,23,80,25,032,*6A
$GLGSV,2,2,06,65,18,280,,70,08,087,*63
$QZGSV,1,1,01,02,04,032,*53
$BDGSV,3,1,09,230,23,302,26,227,22,246,29,224,39,075,,225,33,146,*60
$BDGSV,3,2,09,210,20,081,,226,11,031,,205,11,120,,209,07,065,*67
$BDGSV,3,3,09,229,02,348,*65
$GAGSV,2,1,08,104,45,263,35,112,33,215,29,119,73,071,,127,25,057,*63
$GAGSV,2,2,08,121,23,114,,136,12,331,,118,11,291,,130,04,012,*66
$GPGSA,A,3,02,06,07,09,23,,,,,,,,2.3,1.0,2.1*3A
$GNGSA,A,3,02,06,07,09,23,,,,,,,,2.3,1.0,2.1*24
$GNGSA,A,3,71,73,87,,,,,,,,,,2.3,1.0,2.1*22
$QZGSA,A,3,,,,,,,,,,,,,2.3,1.0,2.1*2D
$IMGSA,A,3,,,,,,,,,,,,,2.3,1.0,2.1*22
$BDGSA,A,3,227,230,,,,,,,,,,,2.3,1.0,2.1*26
$GAGSA,A,3,104,112,,,,,,,,,,,2.3,1.0,2.1*27
$GPRMC,120043.14,A,5200.155426,N,00422.557481,E,000.2,190.4,221119,,,A*51
$GPGGA,120044.14,5200.155585,N,00422.554926,E,1,10,0.6,34.9,M,46.8,M,,*5A
$GPGSV,3,1,11,09,76,072,32,06,52,221,29,23,45,069,32,02,44,290,35*7D
$GPGSV,3,2,11,07,40,165,30,03,13,115,19,16,12,061,19,26,11,035,25*78
$GPGSV,3,3,11,29,07,345,23,30,13,187,,05,10,295,*43
$GLGSV,2,1,06,71,55,065,28,87,41,268,36,73,39,106,23,65,18,280,28*6E
$GLGSV,2,2,06,80,25,032,,70,08,087,*6D
$QZGSV,1,1,01,02,04,032,*53
$BDGSV,3,1,09,230,23,302,25,227,22,246,30,224,39,075,,225,33,146,*6B
$BDGSV,3,2,09,210,20,081,,205,11,120,,226,11,031,,209,07,065,*67
$BDGSV,3,3,09,229,02,348,*65
$GAGSV,2,1,08,104,45,263,34,112,33,215,29,119,73,071,,127,25,057,*62
$GAGSV,2,2,08,121,23,114,,136,12,331,,118,11,291,,130,04,012,*66
$GPGSA,A,3,02,06,07,09,23,,,,,,,,2.6,1.1,2.4*3B
$GNGSA,A,3,02,06,07,09,23,,,,,,,,2.6,1.1,2.4*25
$GNGSA,A,3,71,73,87,,,,,,,,,,2.6,1.1,2.4*23
$QZGSA,A,3,,,,,,,,,,,,,2.6,1.1,2.4*2C
$IMGSA,A,3,,,,,,,,,,,,,2.6,1.1,2.4*23
$BDGSA,A,3,230,,,,,,,,,,,,2.6,1.1,2.4*10
$GAGSA,A,3,104,,,,,,,,,,,,2.6,1.1,2.4*14
$GPRMC,120044.14,A,5200.155585,N,00422.554926,E,000.2,178.0,221119,,,A*5F
$GPGGA,120045.14,5200.153381,N,00422.551500,E,1,17,0.8,35.5,M,46.8,M,,*56
$GPGSV,3,1,11,09,76,072,32,06,52,221,30,23,45,069,32,02,44,290,35*75
$GPGSV,3,2,11,07,40,165,30,03,13,115,18,16,12,061,19,26,11,035,25*79
$GPGSV,3,3,11,29,07,345,22,30,13,187,,05,10,295,*42
$GLGSV,2,1,06,71,55,065,28,87,41,268,36,73,39,106,23,65,18,280,27*61
$GLGSV,2,2,06,80,25,032,,70,08,087,*6D
$QZGSV,1,1,01,02,04,032,*53
$BDGSV,3,1,09,230,23,302,25,227,22,246,30,224,39,075,,225,33,146,*6B
$BDGSV,3,2,09,210,20,081,,205,11,120,,226,11,031,,209,07,065,*67
$BDGSV,3,3,09,229,02,348,*65
$GAGSV,2,1,08,104,45,263,35,112,33,215,29,119,73,071,,127,25,057,*63
$GAGSV,2,2,08,121,23,114,,136,12,331,,118,11,291,,130,04,012,*66
$GPGSA,A,3,02,03,06,07,09,16,23,26,29,,,,1.7,1.0,1.4*30
$GNGSA,A,3,02,03,06,07,09,16,23,26,29,,,,1.7,1.0,1.4*2E
$GNGSA,A,3,65,71,73,87,,,,,,,,,1.7,1.0,1.4*20
$QZGSA,A,3,,,,,,,,,,,,,1.7,1.0,1.4*2C
$IMGSA,A,3,,,,,,,,,,,,,1.7,1.0,1.4*23
$BDGSA,A,3,227,230,,,,,,,,,,,1.7,1.0,1.4*27
$GAGSA,A,3,104,112,,,,,,,,,,,1.7,1.0,1.4*26
$GPRMC,120045.14,A,5200.153381,N,00422.551500,E,000.0,,221119,,,A*75
$GPGGA,120046.14,5200.153188,N,00422.551113,E,1,18,0.6,34.2,M,46.8,M,,*5F
$GPGSV,3,1,11,09,76,072,32,06,52,221,30,23,45,069,32,02,44,290,35*75
$GPGSV,3,2,11,07,40,165,30,30,13,187,16,03,13,115,18,16,12,061,19*74
$GPGSV,3,3,11,26,11,035,25,29,07,345,21,05,10,295,*4B
$GLGSV,2,1,06,71,55,065,29,87,41,268,36,73,39,106,23,65,18,280,27*60
$GLGSV,2,2,06,80,25,032,,70,08,087,*6D
$QZGSV,1,1,01,02,04,032,*53
$BDGSV,3,1,09,230,23,302,26,227,22,246,30,224,39,075,,225,33,146,*68
$BDGSV,3,2,09,210,20,081,,205,11,120,,226,11,031,,209,07,065,*67
$BDGSV,3,3,09,229,02,348,*65
$GAGSV,2,1,08,104,45,263,35,112,33,215,28,119,73,071,,127,25,057,*62
$GAGSV,2,2,08,121,23,114,,136,12,331,,118,11,291,,130,04,012,*66
$GPGSA,A,3,02,03,06,07,09,16,23,26,29,30,,,1.7,0.9,1.5*3A
$GNGSA,A,3,02,03,06,07,09,16,23,26,29,30,,,1.7,0.9,1.5*24
$GNGSA,A,3,65,71,73,87,,,,,,,,,1.7,0.9,1.5*29
$QZGSA,A,3,,,,,,,,,,,,,1.7,0.9,1.5*25
$IMGSA,A,3,,,,,,,,,,,,,1.7,0.9,1.5*2A
$BDGSA,A,3,227,230,,,,,,,,,,,1.7,0.9,1.5*2E
$GAGSA,A,3,104,112,,,,,,,,,,,1.7,0.9,1.5*2F
$GPRMC,120046.14,A,5200.153188,N,00422.551113,E,000.0,,221119,,,A*7B
$GPGGA,120047.00,5200.153117,N,00422.551041,E,1,19,0.6,33.7,M,46.8,M,,*58
$GPGSV,3,1,11,09,76,072,32,06,52,221,30,23,45,069,32,02,44,290,35*75
$GPGSV,3,2,11,07,40,165,30,30,13,187,20,03,13,115,18,16,12,061,19*71
$GPGSV,3,3,11,26,11,035,24,29,07,345,21,05,10,295,*4A
$GLGSV,2,1,06,71,55,065,29,87,41,268,36,73,39,106,23,80,25,032,20*69
$GLGSV,2,2,06,65,18,280,27,70,08,087,*66
$QZGSV,1,1,01,02,04,032,*53
$BDGSV,3,1,09,230,23,302,26,227,22,246,30,224,39,075,,225,33,146,*68
$BDGSV,3,2,09,210,20,081,,226,11,031,,205,11,120,,209,06,065,*66
$BDGSV,3,3,09,229,02,348,*65
$GAGSV,2,1,08,104,45,263,35,112,33,215,28,119,73,071,,127,25,057,*62
$GAGSV,2,2,08,121,23,114,,136,12,331,,118,11,291,,130,04,012,*66
$GPGSA,A,3,02,03,06,07,09,16,23,26,29,30,,,1.5,0.9,1.3*3E
$GNGSA,A,3,02,03,06,07,09,16,23,26,29,30,,,1.5,0.9,1.3*20
$GNGSA,A,3,65,71,73,80,87,,,,,,,,1.5,0.9,1.3*25
$QZGSA,A,3,,,,,,,,,,,,,1.5,0.9,1.3*21
$IMGSA,A,3,,,,,,,,,,,,,1.5,0.9,1.3*2E
$BDGSA,A,3,227,230,,,,,,,,,,,1.5,0.9,1.3*2A
$GAGSA,A,3,104,112,,,,,,,,,,,1.5,0.9,1.3*2B
$GPRMC,120047.00,A,5200.153117,N,00422.551041,E,000.0,,221119,,,A*7F
$GPGGA,120048.00,5200.153265,N,00422.550781,E,1,22,0.6,33.6,M,46.8,M,,*52
$GPGSV,3,1,11,09,76,072,32,06,52,221,30,23,45,069,32,02,44,290,35*75
$GPGSV,3,2,11,07,40,165,29,30,13,187,22,03,13,115,18,16,12,061,19*7B
$GPGSV,3,3,11,26,11,035,24,05,10,295,13,29,07,345,20*49
$GLGSV,2,1,06,71,55,065,29,87,41,268,36,73,39,106,23,80,25,032,20*69
$GLGSV,2,2,06,65,18,280,27,70,08,087,*66
$QZGSV,1,1,01,02,04,032,*53
$BDGSV,3,1,09,224,39,075,22,225,33,146,23,230,23,302,26,227,22,246,30*69
$BDGSV,3,2,09,210,20,081,,226,11,031,,205,11,120,,209,06,065,*66
$BDGSV,3,3,09,229,02,348,*65
$GAGSV,2,1,08,104,45,263,35,112,33,215,28,119,73,071,,127,25,057,*62
$GAGSV,2,2,08,121,23,114,,136,12,331,,118,11,291,,130,04,012,*66
$GPGSA,A,3,02,03,05,06,07,09,16,23,26,29,30,,1.5,0.8,1.2*3B
$GNGSA,A,3,02,03,05,06,07,09,16,23,26,29,30,,1.5,0.8,1.2*25
$GNGSA,A,3,65,71,73,80,87,,,,,,,,1.5,0.8,1.2*25
$QZGSA,A,3,,,,,,,,,,,,,1.5,0.8,1.2*21
$IMGSA,A,3,,,,,,,,,,,,,1.5,0.8,1.2*2E
$BDGSA,A,3,224,225,227,230,,,,,,,,,1.5,0.8,1.2*2B
$GAGSA,A,3,104,112,,,,,,,,,,,1.5,0.8,1.2*2B
$GPRMC,120048.00,A,5200.153265,N,00422.550781,E,000.0,,221119,,,A*7C
$GPGGA,120049.00,5200.153303,N,00422.550755,E,1,22,0.4,33.7,M,46.8,M,,*58
$GPGSV,3,1,11,09,76,072,32,06,52,221,30,23,45,069,32,02,44,290,35*75
$GPGSV,3,2,11,07,40,165,29,30,13,187,23,03,13,115,18,16,12,061,19*7A
$GPGSV,3,3,11,26,11,035,23,05,10,295,,29,07,345,19*46
$GLGSV,2,1,06,71,55,065,29,87,41,268,36,73,39,106,23,80,25,032,20*69
$GLGSV,2,2,06,65,18,280,27,70,08,087,*66
$QZGSV,1,1,01,02,04,032,*53
$BDGSV,3,1,09,224,39,075,22,225,33,146,23,230,23,302,26,227,22,246,30*69
$BDGSV,3,2,09,226,11,031,21,210,20,081,,205,11,120,,209,06,065,*65
$BDGSV,3,3,09,229,02,348,*65
$GAGSV,2,1,08,104,45,263,35,112,33,215,28,119,73,071,,127,25,057,*62
$GAGSV,2,2,08,121,23,114,,136,12,331,,118,11,291,,130,04,012,*66
$GPGSA,A,3,02,03,06,07,09,16,23,26,29,30,,,1.6,0.8,1.3*3C
$GNGSA,A,3,02,03,06,07,09,16,23,26,29,30,,,1.6,0.8,1.3*22
$GNGSA,A,3,65,71,73,80,87,,,,,,,,1.6,0.8,1.3*27
$QZGSA,A,3,,,,,,,,,,,,,1.6,0.8,1.3*23
$IMGSA,A,3,,,,,,,,,,,,,1.6,0.8,1.3*2C
$BDGSA,A,3,224,225,226,227,230,,,,,,,,1.6,0.8,1.3*1F
$GAGSA,A,3,104,112,,,,,,,,,,,1.6,0.8,1.3*29
$GPRMC,120049.00,A,5200.153303,N,00422.550755,E,000.0,,221119,,,A*75
$GPGGA,120050.00,5200.153253,N,00422.550675,E,1,22,0.4,33.7,M,46.8,M,,*57
$GPGSV,3,1,11,09,76,072,32,06,52,221,30,23,45,069,31,02,44,290,35*76
$GPGSV,3,2,11,07,40,165,28,30,13,187,24,03,13,115,18,16,12,061,19*7C
$GPGSV,3,3,11,26,11,035,23,05,10,295,,29,07,345,18*47
$GLGSV,2,1,06,71,55,065,29,87,41,268,36,73,39,106,23,80,25,032,20*69
$GLGSV,2,2,06,65,18,280,27,70,08,087,*66
$QZGSV,1,1,01,02,04,032,*53
$BDGSV,3,1,09,224,39,075,22,225,33,146,23,230,23,302,26,227,22,246,29*61
$BDGSV,3,2,09,226,11,031,21,210,20,081,,205,11,120,,209,06,065,*65
$BDGSV,3,3,09,229,02,348,*65
$GAGSV,2,1,08,104,45,263,35,112,33,215,27,127,25,057,26,119,73,071,*69
$GAGSV,2,2,08,121,23,114,,136,12,331,,118,11,291,,130,04,012,*66
$GPGSA,A,3,02,03,06,07,09,16,23,26,30,,,,1.5,0.8,1.3*34
$GNGSA,A,3,02,03,06,07,09,16,23,26,30,,,,1.5,0.8,1.3*2A
$GNGSA,A,3,65,71,73,80,87,,,,,,,,1.5,0.8,1.3*24
$QZGSA,A,3,,,,,,,,,,,,,1.5,0.8,1.3*20
$IMGSA,A,3,,,,,,,,,,,,,1.5,0.8,1.3*2F
$BDGSA,A,3,224,225,226,227,230,,,,,,,,1.5,0.8,1.3*1C
$GAGSA,A,3,104,112,127,,,,,,,,,,1.5,0.8,1.3*1E
$GPRMC,120050.00,A,5200.153253,N,00422.550675,E,000.0,,221119,,,A*7A
$GPGGA,120051.00,5200.152901,N,00422.550846,E,1,22,0.4,33.7,M,46.8,M,,*55
$GPGSV,3,1,11,09,76,072,31,06,52,221,29,23,45,069,31,02,44,290,35*7D
$GPGSV,3,2,11,07,40,165,28,30,13,187,24,03,13,115,18,16,12,061,19*7C
$GPGSV,3,3,11,26,11,035,23,05,10,295,,29,07,345,18*47
$GLGSV,2,1,06,71,55,065,30,87,41,268,36,73,39,106,23,80,25,032,20*61
$GLGSV,2,2,06,65,18,280,27,70,08,087,*66
$QZGSV,1,1,01,02,04,032,*53
$BDGSV,3,1,09,224,39,075,22,225,33,146,22,230,23,302,26,227,22,246,29*60
$BDGSV,3,2,09,226,11,031,21,210,20,081,,205,11,120,,209,06,065,*65
$BDGSV,3,3,09,229,02,348,*65
$GAGSV,2,1,08,104,45,263,35,112,33,215,27,127,25,057,26,119,73,071,*69
$GAGSV,2,2,08,121,23,114,,136,12,331,,118,11,291,,130,04,012,*66
$GPGSA,A,3,02,03,06,07,09,16,23,26,30,,,,1.5,0.8,1.3*34
$GNGSA,A,3,02,03,06,07,09,16,23,26,30,,,,1.5,0.8,1.3*2A
$GNGSA,A,3,65,71,73,80,87,,,,,,,,1.5,0.8,1.3*24
$QZGSA,A,3,,,,,,,,,,,,,1.5,0.8,1.3*20
$IMGSA,A,3,,,,,,,,,,,,,1.5,0.8,1.3*2F
$BDGSA,A,3,224,225,226,227,230,,,,,,,,1.5,0.8,1.3*1C
$GAGSA,A,3,104,112,127,,,,,,,,,,1.5,0.8,1.3*1E
$GPRMC,120051.00,A,5200.152901,N,00422.550846,E,000.0,,221119,,,A*78
$GPGGA,120052.00,5200.152862,N,00422.551339,E,1,23,0.4,33.1,M,46.8,M,,*57
$GPGSV,3,1,11,09,76,072,31,06,52,221,29,23,45,069,31,02,44,290,35*7D
$GPGSV,3,2,11,07,40,165,27,30,13,187,23,03,13,115,17,16,12,061,19*7B
$GPGSV,3,3,11,26,11,035,23,05,10,295,,29,07,345,17*48
$GLGSV,2,1,06,71,55,065,30,87,41,268,36,73,40,106,23,80,25,032,20*6F
$GLGSV,2,2,06,65,18,280,27,70,08,087,*66
$QZGSV,1,1,01,02,04,032,*53
$BDGSV,3,1,09,224,39,075,24,225,33,146,22,230,23,302,26,227,22,246,29*66
$BDGSV,3,2,09,226,11,031,21,210,20,081,,205,11,120,,209,06,065,*65
$BDGSV,3,3,09,229,02,348,*65
$GAGSV,2,1,08,104,45,263,35,112,33,215,27,127,25,057,26,119,73,071,*69
$GAGSV,2,2,08,121,23,114,,136,12,331,,118,11,291,,130,03,012,*61
$GPGSA,A,3,02,03,06,07,09,16,23,26,29,30,,,1.6,0.8,1.4*3B
$GNGSA,A,3,02,03,06,07,09,16,23,26,29,30,,,1.6,0.8,1.4*25
$GNGSA,A,3,65,71,73,80,87,,,,,,,,1.6,0.8,1.4*20
$QZGSA,A,3,,,,,,,,,,,,,1.6,0.8,1.4*24
$IMGSA,A,3,,,,,,,,,,,,,1.6,0.8,1.4*2B
$BDGSA,A,3,224,225,226,227,230,,,,,,,,1.6,0.8,1.4*18
$GAGSA,A,3,104,112,127,,,,,,,,,,1.6,0.8,1.4*1A
$GPRMC,120052.00,A,5200.152862,N,00422.551339,E,000.0,,221119,,,A*7D
$GPGGA,120053.00,5200.152621,N,00422.551453,E,1,24,0.4,32.6,M,46.8,M,,*55
$GPGSV,3,1,11,09,76,072,31,06,52,221,33,23,45,069,31,02,44,290,35*76
$GPGSV,3,2,11,07,40,165,27,30,13,187,23,03,13,115,17,16,12,061,20*71
$GPGSV,3,3,11,26,11,035,22,05,10,295,,29,07,345,18*46
$GLGSV,2,1,06,71,55,065,30,87,41,268,36,73,40,106,23,80,25,032,20*6F
$GLGSV,2,2,06,65,18,280,27,70,08,087,*66
$QZGSV,1,1,01,02,04,032,*53
$BDGSV,3,1,09,224,39,075,24,225,33,146,22,230,23,302,26,227,22,246,30*6E
$BDGSV,3,2,09,226,11,031,21,210,20,081,,205,11,120,,209,06,065,*65
$BDGSV,3,3,09,229,02,348,*65
$GAGSV,2,1,08,119,73,071,23,104,45,263,35,112,33,215,26,127,25,057,25*6A
$GAGSV,2,2,08,121,23,114,,136,12,331,,118,11,291,,130,03,012,*61
$GPGSA,A,3,02,03,06,07,09,16,23,26,29,30,,,1.7,0.8,1.5*3B
$GNGSA,A,3,02,03,06,07,09,16,23,26,29,30,,,1.7,0.8,1.5*25
$GNGSA,A,3,65,71,73,80,87,,,,,,,,1.7,0.8,1.5*20
$QZGSA,A,3,,,,,,,,,,,,,1.7,0.8,1.5*24
$IMGSA,A,3,,,,,,,,,,,,,1.7,0.8,1.5*2B
$BDGSA,A,3,224,225,226,227,230,,,,,,,,1.7,0.8,1.5*18
$GAGSA,A,3,104,112,119,127,,,,,,,,,1.7,0.8,1.5*23
$GPRMC,120053.00,A,5200.152621,N,00422.551453,E,000.0,,221119,,,A*7E
$GPGGA,120054.00,5200.152387,N,00422.551572,E,1,26,0.4,32.2,M,46.8,M,,*5F
$GPGSV,3,1,11,09,76,072,32,06,52,221,35,23,45,069,31,02,44,289,35*7B
$GPGSV,3,2,11,07,40,165,27,30,13,187,23,03,13,115,19,16,12,061,20*7F
$GPGSV,3,3,11,26,11,035,22,05,10,295,,29,07,345,19*47
$GLGSV,2,1,06,71,55,065,30,87,41,268,36,73,40,106,23,80,25,032,20*6F
$GLGSV,2,2,06,65,18,280,27,70,08,087,*66
$QZGSV,1,1,01,02,04,032,*53
$BDGSV,3,1,09,224,39,075,24,225,33,146,22,230,23,302,25,227,22,246,32*6F
$BDGSV,3,2,09,226,11,031,21,210,20,081,,205,11,120,,209,06,065,*65
$BDGSV,3,3,09,229,02,348,*65
$GAGSV,2,1,08,119,73,071,23,104,45,263,35,112,33,215,26,127,25,057,25*6A
$GAGSV,2,2,08,136,12,331,30,121,23,114,,118,11,291,,130,03,012,*62
$GPGSA,A,3,02,03,06,07,09,16,23,26,29,30,,,1.7,0.8,1.5*3B
$GNGSA,A,3,02,03,06,07,09,16,23,26,29,30,,,1.7,0.8,1.5*25
$GNGSA,A,3,65,71,73,80,87,,,,,,,,1.7,0.8,1.5*20
$QZGSA,A,3,,,,,,,,,,,,,1.7,0.8,1.5*24
$IMGSA,A,3,,,,,,,,,,,,,1.7,0.8,1.5*2B
$BDGSA,A,3,224,225,226,227,230,,,,,,,,1.7,0.8,1.5*18
$GAGSA,A,3,104,112,119,127,136,,,,,,,,1.7,0.8,1.5*17
$GPRMC,120054.00,A,5200.152387,N,00422.551572,E,000.0,,221119,,,A*72
$GPGGA,120055.00,5200.152057,N,00422.551681,E,1,26,0.4,31.8,M,46.8,M,,*56
$GPGSV,3,1,11,09,76,072,31,06,52,221,35,23,45,069,30,02,44,289,35*79
$GPGSV,3,2,11,07,40,165,27,30,13,187,23,03,13,115,20,16,12,061,20*75
$GPGSV,3,3,11,26,11,035,22,05,10,295,,29,07,345,19*47
$GLGSV,2,1,06,71,55,065,30,87,41,268,36,73,40,106,22,80,25,032,20*6E
$GLGSV,2,2,06,65,18,280,27,70,08,087,*66
$QZGSV,1,1,01,02,04,032,*53
$BDGSV,3,1,09,224,39,075,24,225,33,146,22,230,23,302,25,227,22,246,32*6F
$BDGSV,3,2,09,226,11,031,21,210,20,081,,205,11,120,,209,06,065,*65
$BDGSV,3,3,09,229,02,348,*65
$GAGSV,2,1,08,119,73,071,23,104,45,263,35,112,33,215,26,127,25,057,25*6A
$GAGSV,2,2,08,121,23,114,22,136,12,331,29,118,11,291,,130,03,012,*6A
$GPGSA,A,3,02,03,06,07,09,16,23,26,29,30,,,2.0,0.8,1.8*32
$GNGSA,A,3,02,03,06,07,09,16,23,26,29,30,,,2.0,0.8,1.8*2C
$GNGSA,A,3,65,71,73,80,87,,,,,,,,2.0,0.8,1.8*29
$QZGSA,A,3,,,,,,,,,,,,,2.0,0.8,1.8*2D
$IMGSA,A,3,,,,,,,,,,,,,2.0,0.8,1.8*22
$BDGSA,A,3,224,225,226,227,230,,,,,,,,2.0,0.8,1.8*11
$GAGSA,A,3,104,112,119,121,127,136,,,,,,,2.0,0.8,1.8*2C
$GPRMC,120055.00,A,5200.152057,N,00422.551681,E,000.0,,221119,,,A*72
$GPGGA,120056.00,5200.151562,N,00422.551882,E,1,27,0.4,31.2,M,46.8,M,,*53
$GPGSV,3,1,11,09,76,072,31,06,52,221,35,23,45,069,30,02,44,289,35*79
$GPGSV,3,2,11,07,40,165,27,30,13,187,22,03,13,115,19,16,12,061,20*7E
$GPGSV,3,3,11,26,11,035,22,05,10,295,,29,07,345,19*47
$GLGSV,2,1,06,71,55,065,30,87,41,268,36,73,40,106,22,80,25,032,19*64
$GLGSV,2,2,06,65,18,280,27,70,08,087,*66
$QZGSV,1,1,01,02,04,032,*53
$BDGSV,3,1,09,224,39,075,24,225,33,146,22,230,23,302,25,227,22,246,32*6F
$BDGSV,3,2,09,226,11,031,20,210,20,081,,205,11,120,,209,06,065,*64
$BDGSV,3,3,09,229,02,348,*65
$GAGSV,2,1,08,119,73,071,23,104,45,263,35,112,33,215,26,127,25,057,25*6A
$GAGSV,2,2,08,121,23,114,26,136,12,331,29,118,11,291,,130,03,012,*6E
$GPGSA,A,3,02,03,06,07,09,16,23,26,29,30,,,2.1,0.9,2.0*39
$GNGSA,A,3,02,03,06,07,09,16,23,26,29,30,,,2.1,0.9,2.0*27
$GNGSA,A,3,65,71,73,80,87,,,,,,,,2.1,0.9,2.0*22
$QZGSA,A,3,,,,,,,,,,,,,2.1,0.9,2.0*26
$IMGSA,A,3,,,,,,,,,,,,,2.1,0.9,2.0*29
$BDGSA,A,3,224,225,226,227,230,,,,,,,,2.1,0.9,2.0*1A
$GAGSA,A,3,104,112,119,121,127,136,,,,,,,2.1,0.9,2.0*27
$GPRMC,120056.00,A,5200.151562,N,00422.551882,E,000.0,,221119,,,A*7C
$GPGGA,120057.00,5200.151345,N,00422.551718,E,1,27,0.4,31.2,M,46.8,M,,*5D
$GPGSV,3,1,11,09,76,072,31,06,52,221,35,23,45,069,30,02,44,289,35*79
$GPGSV,3,2,11,07,40,165,26,30,13,187,21,03,13,115,19,16,12,061,19*76
$GPGSV,3,3,11,26,11,035,22,05,10,295,,29,07,345,19*47
$GLGSV,2,1,06,71,55,065,30,87,41,268,36,73,40,106,22,80,25,032,19*64
$GLGSV,2,2,06,65,18,280,27,70,08,087,*66
$QZGSV,1,1,01,02,04,032,*53
$BDGSV,3,1,09,224,39,075,24,225,33,145,22,230,23,302,25,227,22,246,32*6C
$BDGSV,3,2,09,226,11,031,20,210,20,081,,205,11,120,,209,06,065,*64
$BDGSV,3,3,09,229,02,348,*65
$GAGSV,2,1,08,119,73,071,23,104,45,263,34,112,33,215,27,127,25,057,25*6A
$GAGSV,2,2,08,121,23,114,25,136,12,331,28,118,11,291,,130,03,012,*6C
$GPGSA,A,3,02,03,06,07,09,16,23,26,29,30,,,1.8,0.9,1.6*36
$GNGSA,A,3,02,03,06,07,09,16,23,26,29,30,,,1.8,0.9,1.6*28
$GNGSA,A,3,65,71,73,80,87,,,,,,,,1.8,0.9,1.6*2D
$QZGSA,A,3,,,,,,,,,,,,,1.8,0.9,1.6*29
$IMGSA,A,3,,,,,,,,,,,,,1.8,0.9,1.6*26
$BDGSA,A,3,224,225,226,227,230,,,,,,,,1.8,0.9,1.6*15
$GAGSA,A,3,104,112,119,121,127,136,,,,,,,1.8,0.9,1.6*28
$GPRMC,120057.00,A,5200.151345,N,00422.551718,E,000.0,,221119,,,A*72
$GPGGA,120058.00,5200.151196,N,00422.551578,E,1,27,0.4,31.2,M,46.8,M,,*5A
$GPGSV,3,1,11,09,76,072,31,06,52,221,35,23,45,069,30,02,44,289,35*79
$GPGSV,3,2,11,07,40,165,26,30,13,187,21,03,13,115,19,16,12,061,19*76
$GPGSV,3,3,11,26,11,035,22,05,10,295,14,29,07,345,20*48
$GLGSV,2,1,06,71,55,065,30,87,41,268,36,73,40,106,22,80,25,032,19*64
$GLGSV,2,2,06,65,18,280,27,70,08,087,*66
$QZGSV,1,1,01,02,04,032,*53
$BDGSV,3,1,09,224,39,075,24,225,33,145,21,230,23,302,25,227,22,246,32*6F
$BDGSV,3,2,09,226,11,031,20,210,20,081,,205,11,120,,209,06,065,*64
$BDGSV,3,3,09,229,02,348,*65
$GAGSV,2,1,08,119,73,071,23,104,45,263,34,112,33,215,29,127,25,057,25*64
$GAGSV,2,2,08,121,23,114,24,136,12,331,27,118,11,291,,130,03,012,*62
$GPGSA,A,3,02,03,05,06,07,09,16,23,26,29,30,,1.6,0.8,1.4*3E
$GNGSA,A,3,02,03,05,06,07,09,16,23,26,29,30,,1.6,0.8,1.4*20
$GNGSA,A,3,65,71,73,80,87,,,,,,,,1.6,0.8,1.4*20
$QZGSA,A,3,,,,,,,,,,,,,1.6,0.8,1.4*24
$IMGSA,A,3,,,,,,,,,,,,,1.6,0.8,1.4*2B
$BDGSA,A,3,224,225,226,227,230,,,,,,,,1.6,0.8,1.4*18
$GAGSA,A,3,104,112,119,127,136,,,,,,,,1.6,0.8,1.4*17
$GPRMC,120058.00,A,5200.151196,N,00422.551578,E,000.0,,221119,,,A*75
$GPGGA,120059.00,5200.150756,N,00422.551924,E,1,26,0.4,30.9,M,46.8,M,,*5E
$GPGSV,3,1,11,09,76,072,32,06,52,221,35,23,45,069,29,02,44,289,35*72
$GPGSV,3,2,11,07,40,165,26,30,13,187,20,03,13,115,20,16,12,061,19*7D
$GPGSV,3,3,11,26,11,035,22,05,10,295,,29,07,345,21*4C
$GLGSV,2,1,06,71,55,065,30,87,41,268,36,73,40,106,23,80,25,032,19*65
$GLGSV,2,2,06,65,18,280,27,70,08,087,*66
$QZGSV,1,1,01,02,04,032,*53
$BDGSV,3,1,09,224,39,075,24,225,33,145,21,230,23,302,25,227,22,246,31*6C
$BDGSV,3,2,09,226,11,031,20,210,20,081,,205,11,120,,209,06,065,*64
$BDGSV,3,3,09,229,02,348,*65
$GAGSV,2,1,08,119,73,071,23,104,45,263,34,112,33,215,29,127,25,057,25*64
$GAGSV,2,2,08,121,23,114,23,136,12,331,26,118,11,291,,130,03,012,*64
$GPGSA,A,3,02,03,06,07,09,16,23,26,29,30,,,1.7,0.8,1.5*3B
$GNGSA,A,3,02,03,06,07,09,16,23,26,29,30,,,1.7,0.8,1.5*25
$GNGSA,A,3,65,71,73,80,87,,,,,,,,1.7,0.8,1.5*20
$QZGSA,A,3,,,,,,,,,,,,,1.7,0.8,1.5*24
$IMGSA,A,3,,,,,,,,,,,,,1.7,0.8,1.5*2B
$BDGSA,A,3,224,225,226,227,230,,,,,,,,1.7,0.8,1.5*18
$GAGSA,A,3,104,112,119,121,127,136,,,,,,,1.7,0.8,1.5*25
$GPRMC,120059.00,A,5200.150756,N,00422.551924,E,000.0,,221119,,,A*7A
$GPGGA,120100.00,5200.150787,N,00422.552120,E,1,28,0.4,30.7,M,46.8,M,,*50
$GPGSV,3,1,11,09,76,072,31,06,52,221,35,23,45,069,29,02,44,289,35*71
$GPGSV,3,2,11,07,40,165,26,30,13,187,20,03,13,115,20,16,12,061,19*7D
$GPGSV,3,3,11,26,11,035,21,05,10,295,14,29,07,345,21*4A
$GLGSV,2,1,06,71,55,065,29,87,41,268,35,73,40,106,23,80,25,032,19*6E
$GLGSV,2,2,06,65,18,280,27,70,08,087,*66
$QZGSV,1,1,01,02,04,032,*53
$BDGSV,3,1,09,224,39,075,24,225,33,145,21,230,23,302,25,227,22,246,31*6C
$BDGSV,3,2,09,226,11,031,19,210,20,081,,205,11,120,,209,06,065,*6E
$BDGSV,3,3,09,229,02,348,*65
$GAGSV,2,1,08,119,73,071,22,104,45,263,34,112,33,215,29,127,25,057,24*64
$GAGSV,2,2,08,121,23,114,23,136,12,331,26,118,11,291,,130,03,012,*64
$GPGSA,A,3,02,03,05,06,07,09,16,23,26,29,30,,1.7,0.8,1.5*3E
$GNGSA,A,3,02,03,05,06,07,09,16,23,26,29,30,,1.7,0.8,1.5*20
$GNGSA,A,3,65,71,73,80,87,,,,,,,,1.7,0.8,1.5*20
$QZGSA,A,3,,,,,,,,,,,,,1.7,0.8,1.5*24
$IMGSA,A,3,,,,,,,,,,,,,1.7,0.8,1.5*2B
$BDGSA,A,3,224,225,226,227,230,,,,,,,,1.7,0.8,1.5*18
$GAGSA,A,3,104,112,119,121,127,136,,,,,,,1.7,0.8,1.5*25
$GPRMC,120100.00,A,5200.150787,N,00422.552120,E,000.0,,221119,,,A*74
$GPGGA,120101.00,5200.150716,N,00422.552200,E,1,25,0.4,30.5,M,46.8,M,,*57
$GPGSV,3,1,11,09,76,072,31,06,52,221,35,23,45,069,29,02,44,289,35*71
$GPGSV,3,2,11,07,40,165,26,30,13,187,,03,13,115,20,16,12,061,19*7F
$GPGSV,3,3,11,26,11,035,21,05,10,295,,29,07,345,20*4E
$GLGSV,2,1,06,71,55,065,29,87,41,268,35,73,40,106,23,80,25,032,18*6F
$GLGSV,2,2,06,65,18,280,27,70,08,087,*66
$QZGSV,1,1,01,02,04,032,*53
$BDGSV,3,1,09,224,39,075,23,225,33,145,21,230,23,302,25,227,22,246,31*6B
$BDGSV,3,2,09,226,11,031,19,210,20,081,,205,11,120,,209,06,065,*6E
$BDGSV,3,3,09,229,02,348,*65
$GAGSV,2,1,08,119,73,071,22,104,45,263,34,112,33,215,29,127,25,057,24*64
$GAGSV,2,2,08,121,23,114,23,136,12,331,25,118,11,291,,130,03,012,*67
$GPGSA,A,3,02,03,06,07,09,16,23,26,29,,,,1.9,0.8,1.7*34
$GNGSA,A,3,02,03,06,07,09,16,23,26,29,,,,1.9,0.8,1.7*2A
$GNGSA,A,3,65,71,73,80,87,,,,,,,,1.9,0.8,1.7*2C
$QZGSA,A,3,,,,,,,,,,,,,1.9,0.8,1.7*28
$IMGSA,A,3,,,,,,,,,,,,,1.9,0.8,1.7*27
$BDGSA,A,3,224,225,226,227,230,,,,,,,,1.9,0.8,1.7*14
$GAGSA,A,3,104,112,119,121,127,136,,,,,,,1.9,0.8,1.7*29
$GPRMC,120101.00,A,5200.150716,N,00422.552200,E,000.0,,221119,,,A*7C
$GPGGA,120102.00,5200.150411,N,00422.552513,E,1,26,0.4,30.2,M,46.8,M,,*51
$GPGSV,3,1,11,09,76,072,31,06,52,221,35,23,45,069,29,02,44,289,35*71
$GPGSV,3,2,11,07,40,165,26,30,13,187,,03,13,115,20,16,12,061,19*7F
$GPGSV,3,3,11,26,11,035,21,05,10,295,14,29,07,345,20*4B
$GLGSV,2,1,06,71,55,065,29,87,41,268,35,73,40,106,23,80,25,032,18*6F
$GLGSV,2,2,06,65,18,280,27,70,08,087,*66
$QZGSV,1,1,01,02,04,032,*53
$BDGSV,3,1,09,224,39,075,23,225,33,145,21,230,23,302,24,227,22,246,31*6A
$BDGSV,3,2,09,226,11,031,19,210,20,081,,205,11,120,,209,06,065,*6E
$BDGSV,3,3,09,229,02,348,*65
$GAGSV,2,1,08,119,73,071,22,104,45,263,34,112,33,215,29,127,25,057,24*64
$GAGSV,2,2,08,121,23,114,23,136,12,331,25,130,03,012,,118,11,291,*67
$GPGSA,A,3,02,03,05,06,07,09,16,23,26,29,,,1.8,0.8,1.6*31
$GNGSA,A,3,02,03,05,06,07,09,16,23,26,29,,,1.8,0.8,1.6*2F
$GNGSA,A,3,65,71,73,80,87,,,,,,,,1.8,0.8,1.6*2C
$QZGSA,A,3,,,,,,,,,,,,,1.8,0.8,1.6*28
$IMGSA,A,3,,,,,,,,,,,,,1.8,0.8,1.6*27
$BDGSA,A,3,224,225,226,227,230,,,,,,,,1.8,0.8,1.6*14
$GAGSA,A,3,104,112,119,121,127,136,,,,,,,1.8,0.8,1.6*29
$GPRMC,120102.00,A,5200.150411,N,00422.552513,E,000.0,,221119,,,A*7E
$GPGGA,120103.00,5200.150324,N,00422.552562,E,1,25,0.4,30.1,M,46.8,M,,*57
$GPGSV,3,1,11,09,76,072,31,06,52,221,35,23,45,069,28,02,44,289,35*70
$GPGSV,3,2,11,07,40,165,25,30,13,187,18,03,13,115,20,16,12,061,19*75
$GPGSV,3,3,11,26,11,035,20,05,10,295,,29,07,345,20*4F
$GLGSV,2,1,06,71,55,065,29,87,41,268,35,73,40,106,24,80,25,032,18*68
$GLGSV,2,2,06,65,18,280,28,70,08,087,*69
$QZGSV,1,1,01,02,04,032,*53
$BDGSV,3,1,09,224,39,075,23,225,33,145,20,230,23,302,24,227,22,246,31*6B
$BDGSV,3,2,09,226,11,031,19,210,20,081,,205,11,120,,209,06,065,*6E
$BDGSV,3,3,09,229,02,348,*65
$GAGSV,2,1,08,119,73,071,22,104,45,263,34,112,33,215,29,127,25,057,24*64
$GAGSV,2,2,08,121,23,114,,136,12,331,24,130,03,012,,118,11,291,*67
$GPGSA,A,3,02,03,06,07,09,16,23,26,29,30,,,1.8,0.8,1.6*37
$GNGSA,A,3,02,03,06,07,09,16,23,26,29,30,,,1.8,0.8,1.6*29
$GNGSA,A,3,65,71,73,80,87,,,,,,,,1.8,0.8,1.6*2C
$QZGSA,A,3,,,,,,,,,,,,,1.8,0.8,1.6*28
$IMGSA,A,3,,,,,,,,,,,,,1.8,0.8,1.6*27
$BDGSA,A,3,224,225,226,227,230,,,,,,,,1.8,0.8,1.6*14
$GAGSA,A,3,104,112,119,127,136,,,,,,,,1.8,0.8,1.6*1B
$GPRMC,120103.00,A,5200.150324,N,00422.552562,E,000.0,,221119,,,A*78
$GPGGA,120104.00,5200.150213,N,00422.552601,E,1,25,0.4,29.9,M,46.8,M,,*53
$GPGSV,3,1,11,09,76,072,31,06,52,221,35,23,45,069,28,02,44,289,35*70
$GPGSV,3,2,11,07,40,165,25,30,13,187,,03,13,115,20,16,12,061,19*7C
$GPGSV,3,3,11,26,11,035,20,05,10,295,,29,07,345,20*4F
$GLGSV,2,1,06,71,55,065,29,87,41,268,35,73,40,106,24,80,25,032,18*68
$GLGSV,2,2,06,65,18,280,27,70,08,087,*66
$QZGSV,1,1,01,02,04,032,*53
$BDGSV,3,1,09,224,39,075,23,225,33,145,20,230,23,302,24,227,22,246,31*6B
$BDGSV,3,2,09,226,11,031,18,210,20,081,,205,11,120,,209,06,065,*6F
$BDGSV,3,3,09,229,02,348,*65
$GAGSV,2,1,08,119,73,071,21,104,45,263,34,112,33,215,29,127,25,057,24*67
$GAGSV,2,2,08,121,23,114,21,136,12,331,24,118,11,291,,130,03,012,*64
$GPGSA,A,3,02,03,06,07,09,16,23,26,29,,,,1.8,0.8,1.6*34
$GNGSA,A,3,02,03,06,07,09,16,23,26,29,,,,1.8,0.8,1.6*2A
$GNGSA,A,3,65,71,73,80,87,,,,,,,,1.8,0.8,1.6*2C
$QZGSA,A,3,,,,,,,,,,,,,1.8,0.8,1.6*28
$IMGSA,A,3,,,,,,,,,,,,,1.8,0.8,1.6*27
$BDGSA,A,3,224,225,226,227,230,,,,,,,,1.8,0.8,1.6*14
$GAGSA,A,3,104,112,119,121,127,136,,,,,,,1.8,0.8,1.6*29
$GPRMC,120104.00,A,5200.150213,N,00422.552601,E,000.0,,221119,,,A*7C
$GPGGA,120105.00,5200.149849,N,00422.552865,E,1,26,0.4,29.6,M,46.8,M,,*5F
$GPGSV,3,1,11,09,76,072,32,06,52,221,36,23,45,069,28,02,44,289,35*70
$GPGSV,3,2,11,07,40,165,25,30,13,187,,03,13,115,21,16,12,061,18*7C
$GPGSV,3,3,11,26,11,035,20,05,10,295,14,29,07,345,20*4A
$GLGSV,2,1,06,71,55,065,29,87,41,268,35,73,40,106,25,80,25,032,17*66
$GLGSV,2,2,06,65,18,280,27,70,08,087,*66
$QZGSV,1,1,01,02,04,032,*53
$BDGSV,3,1,09,224,39,075,23,225,33,145,20,230,23,302,24,227,22,246,31*6B
$BDGSV,3,2,09,226,11,031,18,210,20,081,,205,11,120,,209,06,065,*6F
$BDGSV,3,3,09,229,02,348,*65
$GAGSV,2,1,08,119,73,071,21,104,45,263,34,112,33,215,29,127,25,057,24*67
$GAGSV,2,2,08,121,23,114,20,136,12,331,24,118,11,291,,130,03,012,*65
$GPGSA,A,3,02,03,05,06,07,09,16,23,26,29,,,1.9,0.8,1.7*31
$GNGSA,A,3,02,03,05,06,07,09,16,23,26,29,,,1.9,0.8,1.7*2F
$GNGSA,A,3,65,71,73,80,87,,,,,,,,1.9,0.8,1.7*2C
$QZGSA,A,3,,,,,,,,,,,,,1.9,0.8,1.7*28
$IMGSA,A,3,,,,,,,,,,,,,1.9,0.8,1.7*27
$BDGSA,A,3,224,225,226,227,230,,,,,,,,1.9,0.8,1.7*14
$GAGSA,A,3,104,112,119,121,127,136,,,,,,,1.9,0.8,1.7*29
$GPRMC,120105.00,A,5200.149849,N,00422.552865,E,000.0,,221119,,,A*7C
$GPGGA,120106.00,5200.149546,N,00422.553149,E,1,25,0.4,29.2,M,46.8,M,,*5F
$GPGSV,3,1,11,09,76,072,32,06,52,221,36,23,45,069,28,02,44,289,35*70
$GPGSV,3,2,11,07,40,165,25,30,13,187,,03,13,115,21,16,12,061,18*7C
$GPGSV,3,3,11,26,11,035,20,05,10,295,,29,07,345,20*4F
$GLGSV,2,1,06,71,55,065,29,87,41,268,35,73,40,106,25,80,25,032,17*66
$GLGSV,2,2,06,65,18,280,27,70,08,087,*66
$QZGSV,1,1,01,02,04,032,*53
$BDGSV,3,1,09,224,39,075,23,225,33,145,20,230,23,302,24,227,22,246,31*6B
$BDGSV,3,2,09,226,11,031,18,210,20,081,,205,11,120,,209,06,065,*6F
$BDGSV,3,3,09,229,02,348,*65
$GAGSV,2,1,08,119,73,071,21,104,45,263,34,112,33,215,29,127,25,057,24*67
$GAGSV,2,2,08,121,23,114,20,136,12,331,24,118,11,291,,130,03,012,*65
$GPGSA,A,3,02,03,06,07,09,16,23,26,29,,,,1.7,0.8,1.5*38
$GNGSA,A,3,02,03,06,07,09,16,23,26,29,,,,1.7,0.8,1.5*26
$GNGSA,A,3,65,71,73,80,87,,,,,,,,1.7,0.8,1.5*20
$QZGSA,A,3,,,,,,,,,,,,,1.7,0.8,1.5*24
$IMGSA,A,3,,,,,,,,,,,,,1.7,0.8,1.5*2B
$BDGSA,A,3,224,225,226,227,230,,,,,,,,1.7,0.8,1.5*18
$GAGSA,A,3,104,112,119,121,127,136,,,,,,,1.7,0.8,1.5*25
$GPRMC,120106.00,A,5200.149546,N,00422.553149,E,000.0,,221119,,,A*7B
$GPGGA,120107.00,5200.149143,N,00422.553639,E,1,26,0.4,28.8,M,46.8,M,,*57
$GPGSV,3,1,11,09,76,072,32,06,52,221,36,23,45,069,28,02,44,289,35*70
$GPGSV,3,2,11,07,40,165,25,30,13,187,20,03,13,115,21,16,12,061,18*7E
$GPGSV,3,3,11,26,11,035,20,05,10,295,,29,07,345,20*4F
$GLGSV,2,1,06,71,55,065,29,87,41,268,35,73,40,106,25,80,25,032,17*66
$GLGSV,2,2,06,65,18,280,27,70,08,087,*66
$QZGSV,1,1,01,02,04,032,*53
$BDGSV,3,1,09,224,39,075,23,225,33,145,20,230,23,302,24,227,22,246,30*6A
$BDGSV,3,2,09,226,11,031,18,210,20,081,,205,11,120,,209,06,065,*6F
$BDGSV,3,3,09,229,02,348,*65
$GAGSV,2,1,08,119,73,071,21,104,45,263,34,112,33,215,29,127,25,057,24*67
$GAGSV,2,2,08,121,23,114,19,136,12,331,24,118,11,291,,130,03,012,*6F
$GPGSA,A,3,02,03,06,07,09,16,23,26,29,30,,,1.6,0.8,1.4*3B
$GNGSA,A,3,02,03,06,07,09,16,23,26,29,30,,,1.6,0.8,1.4*25
$GNGSA,A,3,65,71,73,80,87,,,,,,,,1.6,0.8,1.4*20
$QZGSA,A,3,,,,,,,,,,,,,1.6,0.8,1.4*24
$IMGSA,A,3,,,,,,,,,,,,,1.6,0.8,1.4*2B
$BDGSA,A,3,224,225,226,227,230,,,,,,,,1.6,0.8,1.4*18
$GAGSA,A,3,104,112,119,121,127,136,,,,,,,1.6,0.8,1.4*25
$GPRMC,120107.00,A,5200.149143,N,00422.553639,E,000.0,,221119,,,A*7B
$GPGGA,120108.00,5200.149143,N,00422.553639,E,1,24,0.4,28.4,M,46.8,M,,*56
$GPGSV,3,1,11,09,76,072,32,06,52,221,36,23,45,069,27,02,44,289,34*7E
$GPGSV,3,2,11,07,40,165,25,30,13,187,,03,13,115,20,16,12,061,18*7D
$GPGSV,3,3,11,26,11,035,20,05,10,295,,29,07,345,20*4F
$GLGSV,2,1,06,71,55,065,29,87,41,268,35,73,40,106,25,80,25,032,*60
$GLGSV,2,2,06,65,18,280,27,70,08,087,*66
$QZGSV,1,1,01,02,04,032,*53
$BDGSV,3,1,09,224,39,075,23,225,33,145,20,230,23,302,24,227,22,246,30*6A
$BDGSV,3,2,09,226,11,031,17,210,20,081,,205,11,120,,209,06,065,*60
$BDGSV,3,3,09,229,02,348,*65
$GAGSV,2,1,08,119,73,071,21,104,45,263,34,112,33,215,29,127,25,057,24*67
$GAGSV,2,2,08,121,23,114,19,136,12,331,23,118,11,291,,130,03,012,*68
$GPGSA,A,3,02,03,06,07,09,16,23,26,29,,,,1.6,0.8,1.4*38
$GNGSA,A,3,02,03,06,07,09,16,23,26,29,,,,1.6,0.8,1.4*26
$GNGSA,A,3,65,71,73,87,,,,,,,,,1.6,0.8,1.4*28
$QZGSA,A,3,,,,,,,,,,,,,1.6,0.8,1.4*24
$IMGSA,A,3,,,,,,,,,,,,,1.6,0.8,1.4*2B
$BDGSA,A,3,224,225,226,227,230,,,,,,,,1.6,0.8,1.4*18
$GAGSA,A,3,104,112,119,121,127,136,,,,,,,1.6,0.8,1.4*25
$GPRMC,120108.00,A,5200.149143,N,00422.553639,E,000.0,,221119,,,A*74
$GPGGA,120109.00,5200.149143,N,00422.553639,E,1,25,0.4,28.1,M,46.8,M,,*53
$GPGSV,3,1,11,09,76,072,32,06,52,221,36,23,45,069,27,02,44,289,34*7E
$GPGSV,3,2,11,07,40,165,27,30,13,187,,03,13,115,20,16,12,061,18*7F
$GPGSV,3,3,11,26,11,035,20,05,10,295,14,29,07,345,21*4B
$GLGSV,2,1,06,71,55,065,29,87,41,268,35,73,40,106,26,80,25,032,16*64
$GLGSV,2,2,06,65,18,280,27,70,08,087,*66
$QZGSV,1,1,01,02,04,032,*53
$BDGSV,3,1,09,224,39,075,24,225,33,145,20,230,23,302,24,227,22,246,30*6D
$BDGSV,3,2,09,210,20,081,,205,11,120,,226,11,031,17,209,06,065,*60
$BDGSV,3,3,09,229,02,348,*65
$GAGSV,2,1,08,119,73,071,21,104,45,263,34,112,32,215,29,127,25,057,24*66
$GAGSV,2,2,08,121,23,113,,136,12,331,23,118,11,291,,130,03,012,*67
$GPGSA,A,3,02,03,05,06,07,09,16,23,26,29,,,1.6,0.8,1.4*3D
$GNGSA,A,3,02,03,05,06,07,09,16,23,26,29,,,1.6,0.8,1.4*23
$GNGSA,A,3,65,71,73,80,87,,,,,,,,1.6,0.8,1.4*20
$QZGSA,A,3,,,,,,,,,,,,,1.6,0.8,1.4*24
$IMGSA,A,3,,,,,,,,,,,,,1.6,0.8,1.4*2B
$BDGSA,A,3,224,225,226,227,230,,,,,,,,1.6,0.8,1.4*18
$GAGSA,A,3,104,112,119,127,136,,,,,,,,1.6,0.8,1.4*17
$GPRMC,120109.00,A,5200.149143,N,00422.553639,E,000.0,,221119,,,A*75
$GPGGA,120110.00,5200.149143,N,00422.553639,E,1,25,0.4,27.7,M,46.8,M,,*52
$GPGSV,3,1,11,09,76,072,32,06,52,221,36,23,45,069,27,02,44,289,34*7E
$GPGSV,3,2,11,07,40,165,26,30,13,187,,03,13,115,20,16,12,061,17*71
$GPGSV,3,3,11,26,11,035,20,05,10,295,,29,07,345,22*4D
$GLGSV,2,1,06,71,55,065,29,87,41,268,35,73,40,106,26,80,25,032,17*65
$GLGSV,2,2,06,65,18,280,27,70,08,087,10*67
$QZGSV,1,1,01,02,04,032,*53
$BDGSV,3,1,09,224,39,075,24,225,33,145,20,230,23,302,24,227,22,246,30*6D
$BDGSV,3,2,09,210,20,081,09,205,11,120,,226,11,031,18,209,06,065,*66
$BDGSV,3,3,09,229,02,348,*65
$GAGSV,2,1,08,119,73,071,21,104,45,263,34,112,32,215,30,127,25,057,24*6E
$GAGSV,2,2,08,121,23,113,,136,12,331,23,118,11,291,,130,03,012,*67
$GPGSA,A,3,02,03,06,07,09,16,23,26,29,,,,1.7,0.8,1.5*38
$GNGSA,A,3,02,03,06,07,09,16,23,26,29,,,,1.7,0.8,1.5*26
$GNGSA,A,3,65,71,73,80,87,,,,,,,,1.7,0.8,1.5*20
$QZGSA,A,3,,,,,,,,,,,,,1.7,0.8,1.5*24
$IMGSA,A,3,,,,,,,,,,,,,1.7,0.8,1.5*2B
$BDGSA,A,3,224,225,226,227,230,,,,,,,,1.7,0.8,1.5*18
$GAGSA,A,3,104,112,119,127,136,,,,,,,,1.7,0.8,1.5*17
$GPRMC,120110.00,A,5200.149143,N,00422.553639,E,000.0,,221119,,,A*7D
$GPGGA,120111.00,5200.149143,N,00422.553639,E,1,27,0.4,27.2,M,46.8,M,,*54
$GPGSV,3,1,11,09,76,072,32,06,52,221,36,23,45,069,27,02,44,289,35*7F
$GPGSV,3,2,11,07,40,165,26,30,13,187,,03,13,115,20,16,12,061,18*7E
$GPGSV,3,3,11,26,11,035,21,05,10,295,,29,07,345,23*4D
$GLGSV,2,1,06,71,55,065,28,87,41,268,35,73,40,106,26,80,25,032,17*64
$GLGSV,2,2,06,65,18,280,27,70,08,087,*66
$QZGSV,1,1,01,02,04,032,*53
$BDGSV,3,1,09,224,39,075,25,225,33,145,20,230,23,302,24,227,22,246,30*6C
$BDGSV,3,2,09,210,20,081,11,205,11,120,19,226,11,031,18,209,06,065,*67
$BDGSV,3,3,09,229,02,348,*65
$GAGSV,2,1,08,119,73,071,21,104,45,263,34,112,32,215,30,127,25,057,24*6E
$GAGSV,2,2,08,121,23,113,,136,12,331,23,118,11,291,,130,03,012,*67
$GPGSA,A,3,02,03,06,07,09,16,23,26,29,,,,1.9,0.8,1.8*3B
$GNGSA,A,3,02,03,06,07,09,16,23,26,29,,,,1.9,0.8,1.8*25
$GNGSA,A,3,65,71,73,80,87,,,,,,,,1.9,0.8,1.8*23
$QZGSA,A,3,,,,,,,,,,,,,1.9,0.8,1.8*27
$IMGSA,A,3,,,,,,,,,,,,,1.9,0.8,1.8*28
$BDGSA,A,3,205,224,225,226,227,230,,,,,,,1.9,0.8,1.8*2C
$GAGSA,A,3,104,112,119,127,136,,,,,,,,1.9,0.8,1.8*14
$GPRMC,120111.00,A,5200.149143,N,00422.553639,E,000.0,,221119,,,A*7C
$GPGGA,120112.00,5200.149143,N,00422.553639,E,1,28,0.4,26.8,M,46.8,M,,*53
$GPGSV,3,1,11,09,76,072,32,06,52,221,36,23,45,069,27,02,44,289,35*7F
$GPGSV,3,2,11,07,40,165,26,30,13,187,,03,13,115,20,16,12,061,18*7E
$GPGSV,3,3,11,26,11,035,21,05,10,295,,29,07,345,23*4D
$GLGSV,2,1,06,71,55,065,28,87,41,268,35,73,40,106,26,80,25,032,17*64
$GLGSV,2,2,06,65,18,280,27,70,08,087,17*60
$QZGSV,1,1,01,02,04,032,*53
$BDGSV,3,1,09,224,39,075,25,225,33,145,20,230,23,302,25,227,22,246,30*6D
$BDGSV,3,2,09,210,20,081,14,205,11,120,,226,11,031,19,209,06,065,15*6F
$BDGSV,3,3,09,229,02,348,*65
$GAGSV,2,1,08,119,73,071,21,104,45,263,34,112,32,215,30,127,25,057,24*6E
$GAGSV,2,2,08,121,23,113,22,136,12,331,23,118,11,291,,130,03,012,*67
$GPGSA,A,3,02,03,06,07,09,16,23,26,29,,,,1.7,0.8,1.5*38
$GNGSA,A,3,02,03,06,07,09,16,23,26,29,,,,1.7,0.8,1.5*26
$GNGSA,A,3,65,70,71,73,80,87,,,,,,,1.7,0.8,1.5*27
$QZGSA,A,3,,,,,,,,,,,,,1.7,0.8,1.5*24
$IMGSA,A,3,,,,,,,,,,,,,1.7,0.8,1.5*2B
$BDGSA,A,3,209,210,224,225,226,227,230,,,,,,1.7,0.8,1.5*10
$GAGSA,A,3,104,112,119,121,127,136,,,,,,,1.7,0.8,1.5*25
$GPRMC,120112.00,A,5200.149143,N,00422.553639,E,000.0,,221119,,,A*7F
$GPGGA,120113.00,5200.149143,N,00422.553639,E,1,27,0.4,26.4,M,46.8,M,,*51
$GPGSV,3,1,11,09,76,072,33,06,52,221,37,23,45,069,27,02,44,289,35*7F
$GPGSV,3,2,11,07,40,165,27,30,13,187,,03,13,115,20,16,12,061,18*7F
$GPGSV,3,3,11,26,11,035,21,05,10,295,,29,07,345,23*4D
$GLGSV,2,1,06,71,55,065,28,87,41,268,35,73,40,106,26,80,25,032,17*64
$GLGSV,2,2,06,65,18,280,27,70,08,087,*66
$QZGSV,1,1,01,02,04,032,*53
$BDGSV,3,1,09,224,39,075,25,225,33,145,20,230,23,302,25,227,22,246,30*6D
$BDGSV,3,2,09,210,20,081,,205,11,120,,226,11,031,19,209,06,065,17*68
$BDGSV,3,3,09,229,02,348,*65
$GAGSV,2,1,08,119,73,071,22,104,45,263,34,112,32,215,30,127,25,057,25*6C
$GAGSV,2,2,08,121,23,113,22,136,12,331,23,118,11,291,,130,03,012,*67
$GPGSA,A,3,02,03,06,07,09,16,23,26,29,,,,1.7,0.8,1.5*38
$GNGSA,A,3,02,03,06,07,09,16,23,26,29,,,,1.7,0.8,1.5*26
$GNGSA,A,3,65,71,73,80,87,,,,,,,,1.7,0.8,1.5*20
$QZGSA,A,3,,,,,,,,,,,,,1.7,0.8,1.5*24
$IMGSA,A,3,,,,,,,,,,,,,1.7,0.8,1.5*2B
$BDGSA,A,3,209,224,225,226,227,230,,,,,,,1.7,0.8,1.5*23
$GAGSA,A,3,104,112,119,121,127,136,,,,,,,1.7,0.8,1.5*25
$GPRMC,120113.00,A,5200.149143,N,00422.553639,E,000.0,,221119,,,A*7E
$GPGGA,120114.00,5200.149143,N,00422.553639,E,1,27,0.4,26.4,M,46.8,M,,*56
$GPGSV,3,1,11,09,76,072,33,06,52,221,37,23,45,069,27,02,44,289,35*7F
$GPGSV,3,2,11,07,40,165,27,30,13,187,,03,13,115,20,16,12,061,18*7F
$GPGSV,3,3,11,26,11,035,21,29,07,345,23,05,10,295,*4D
$GLGSV,2,1,06,71,55,065,28,87,41,268,35,73,40,106,26,80,25,032,17*64
$GLGSV,2,2,06,65,18,280,27,70,08,087,*66
$QZGSV,1,1,01,02,04,032,*53
$BDGSV,3,1,10,224,39,075,26,225,33,145,19,230,23,302,25,227,22,246,30*6C
$BDGSV,3,2,10,210,20,081,20,205,11,120,,226,11,031,19,209,06,065,*64
$BDGSV,3,3,10,229,02,348,,223,00,181,*66
$GAGSV,2,1,08,119,73,071,22,104,45,263,34,112,32,215,30,127,25,057,25*6C
$GAGSV,2,2,08,121,23,113,22,136,12,331,23,118,11,291,,130,03,012,*67
$GPGSA,A,3,02,03,06,07,09,16,23,26,29,,,,1.7,0.8,1.5*38
$GNGSA,A,3,02,03,06,07,09,16,23,26,29,,,,1.7,0.8,1.5*26
$GNGSA,A,3,65,71,73,80,87,,,,,,,,1.7,0.8,1.5*20
$QZGSA,A,3,,,,,,,,,,,,,1.7,0.8,1.5*24
$IMGSA,A,3,,,,,,,,,,,,,1.7,0.8,1.5*2B
$BDGSA,A,3,210,224,225,226,227,230,,,,,,,1.7,0.8,1.5*2B
$GAGSA,A,3,104,112,119,121,127,136,,,,,,,1.7,0.8,1.5*25
$GPRMC,120114.00,A,5200.149143,N,00422.553639,E,000.0,,221119,,,A*79
$GPGGA,120115.00,5200.149143,N,00422.553639,E,1,27,0.4,26.4,M,46.8,M,,*57
$GPGSV,3,1,11,09,76,072,33,06,52,221,37,23,45,069,27,02,44,289,35*7F
$GPGSV,3,2,11,07,40,165,26,30,13,187,13,03,13,115,19,16,12,061,18*76
$GPGSV,3,3,11,26,11,035,21,29,07,345,23,05,10,295,*4D
$GLGSV,2,1,06,71,55,065,28,87,41,268,35,73,40,106,26,80,25,032,18*6B
$GLGSV,2,2,06,65,18,280,27,70,08,087,15*62
$QZGSV,1,1,01,02,04,032,*53
$BDGSV,3,1,10,224,39,075,25,225,33,145,19,230,23,302,25,227,22,246,30*6F
$BDGSV,3,2,10,210,20,081,19,205,11,120,,226,11,031,19,209,06,065,15*6A
$BDGSV,3,3,10,229,02,348,,223,00,181,*66
$GAGSV,2,1,08,119,73,071,21,104,45,263,34,112,32,215,30,127,25,057,25*6F
$GAGSV,2,2,08,121,23,113,23,136,12,331,23,118,11,291,,130,03,012,*66
$GPGSA,A,3,02,03,06,07,09,16,23,26,29,30,,,1.6,0.8,1.4*3B
$GNGSA,A,3,02,03,06,07,09,16,23,26,29,30,,,1.6,0.8,1.4*25
$GNGSA,A,3,65,71,73,80,87,,,,,,,,1.6,0.8,1.4*20
$QZGSA,A,3,,,,,,,,,,,,,1.6,0.8,1.4*24
$IMGSA,A,3,,,,,,,,,,,,,1.6,0.8,1.4*2B
$BDGSA,A,3,210,224,225,226,227,230,,,,,,,1.6,0.8,1.4*2B
$GAGSA,A,3,104,112,119,121,127,136,,,,,,,1.6,0.8,1.4*25
$GPRMC,120115.00,A,5200.149143,N,00422.553639,E,000.0,,221119,,,A*78
$GPGGA,120116.00,5200.149143,N,00422.553639,E,1,26,0.4,26.4,M,46.8,M,,*55
$GPGSV,3,1,11,09,76,072,33,06,52,221,36,23,45,069,27,02,44,289,35*7E
$GPGSV,3,2,11,07,40,165,26,30,13,187,18,03,13,115,19,16,12,061,18*7D
$GPGSV,3,3,11,26,11,035,21,29,07,345,23,05,10,295,*4D
$GLGSV,2,1,06,71,55,065,28,87,41,268,35,73,40,106,26,80,25,032,18*6B
$GLGSV,2,2,06,65,18,280,27,70,08,087,*66
$QZGSV,1,1,01,02,04,032,*53
$BDGSV,3,1,10,224,39,075,25,225,33,145,19,230,23,302,25,227,22,246,30*6F
$BDGSV,3,2,10,210,20,081,,205,11,120,,226,11,031,19,209,06,065,*66
$BDGSV,3,3,10,229,02,348,,223,00,181,*66
$GAGSV,2,1,08,119,73,071,21,104,46,263,34,112,32,215,30,127,25,057,25*6C
$GAGSV,2,2,08,121,23,113,,136,12,331,23,130,03,012,,118,11,291,*67
$GPGSA,A,3,02,03,06,07,09,16,23,26,29,30,,,1.7,0.8,1.5*3B
$GNGSA,A,3,02,03,06,07,09,16,23,26,29,30,,,1.7,0.8,1.5*25
$GNGSA,A,3,65,71,73,80,87,,,,,,,,1.7,0.8,1.5*20
$QZGSA,A,3,,,,,,,,,,,,,1.7,0.8,1.5*24
$IMGSA,A,3,,,,,,,,,,,,,1.7,0.8,1.5*2B
$BDGSA,A,3,224,225,226,227,230,,,,,,,,1.7,0.8,1.5*18
$GAGSA,A,3,104,112,119,127,136,,,,,,,,1.7,0.8,1.5*17
$GPRMC,120116.00,A,5200.149143,N,00422.553639,E,000.0,,221119,,,A*7B
$GPGGA,120117.00,5200.149143,N,00422.553639,E,1,27,0.4,26.4,M,46.8,M,,*55
$GPGSV,3,1,11,09,76,072,33,06,52,221,36,23,45,069,27,02,44,289,35*7E
$GPGSV,3,2,11,07,40,165,26,30,13,187,20,03,13,115,19,16,12,061,18*76
$GPGSV,3,3,11,26,11,035,21,29,07,345,23,05,10,295,*4D
$GLGSV,2,1,06,71,55,065,28,87,41,268,35,73,40,106,26,80,25,032,18*6B
$GLGSV,2,2,06,65,18,280,27,70,08,087,*66
$QZGSV,1,1,01,02,04,032,*53
$BDGSV,3,1,10,224,39,075,25,225,33,145,19,230,23,302,25,227,22,246,30*6F
$BDGSV,3,2,10,210,20,081,19,205,11,120,,226,11,031,19,209,06,065,14*6B
$BDGSV,3,3,10,229,02,348,,223,00,181,*66
$GAGSV,2,1,08,119,73,071,21,104,46,263,34,112,32,215,30,127,25,057,25*6C
$GAGSV,2,2,08,121,23,113,25,136,12,331,23,130,03,012,,118,11,291,*60
$GPGSA,A,3,02,03,06,07,09,16,23,26,29,30,,,1.7,0.8,1.5*3B
$GNGSA,A,3,02,03,06,07,09,16,23,26,29,30,,,1.7,0.8,1.5*25
$GNGSA,A,3,65,71,73,80,87,,,,,,,,1.7,0.8,1.5*20
$QZGSA,A,3,,,,,,,,,,,,,1.7,0.8,1.5*24
$IMGSA,A,3,,,,,,,,,,,,,1.7,0.8,1.5*2B
$BDGSA,A,3,210,224,225,226,227,230,,,,,,,1.7,0.8,1.5*2B
$GAGSA,A,3,104,112,119,121,127,136,,,,,,,1.7,0.8,1.5*25
$GPRMC,120117.00,A,5200.149143,N,00422.553639,E,000.0,,221119,,,A*7A
$GPGGA,120118.00,5200.149143,N,00422.553639,E,1,27,0.4,26.4,M,46.8,M,,*5A
$GPGSV,3,1,11,09,76,072,33,06,52,221,36,23,45,069,27,02,44,289,35*7E
$GPGSV,3,2,11,07,41,165,27,30,13,187,23,03,13,115,19,16,12,061,18*75
$GPGSV,3,3,11,26,11,035,21,29,07,345,23,05,10,295,*4D
$GLGSV,2,1,06,71,55,065,28,87,41,268,35,73,40,106,26,80,25,032,19*6A
$GLGSV,2,2,06,65,18,280,27,70,08,087,*66
$QZGSV,1,1,01,02,04,032,*53
$BDGSV,3,1,10,224,39,075,25,225,33,145,19,230,23,302,25,227,22,246,30*6F
$BDGSV,3,2,10,210,20,081,19,205,11,120,,226,11,031,19,209,06,065,*6E
$BDGSV,3,3,10,229,02,348,,223,00,181,*66
$GAGSV,2,1,08,119,72,071,21,104,46,263,34,112,32,215,30,127,25,057,25*6D
$GAGSV,2,2,08,121,23,113,,136,12,331,23,130,03,012,,118,11,291,*67
$GPGSA,A,3,02,03,06,07,09,16,23,26,29,30,,,1.5,0.8,1.3*3F
$GNGSA,A,3,02,03,06,07,09,16,23,26,29,30,,,1.5,0.8,1.3*21
$GNGSA,A,3,65,71,73,80,87,,,,,,,,1.5,0.8,1.3*24
$QZGSA,A,3,,,,,,,,,,,,,1.5,0.8,1.3*20
$IMGSA,A,3,,,,,,,,,,,,,1.5,0.8,1.3*2F
$BDGSA,A,3,210,224,225,226,227,230,,,,,,,1.5,0.8,1.3*2F
$GAGSA,A,3,104,112,119,127,136,,,,,,,,1.5,0.8,1.3*13
$GPRMC,120118.00,A,5200.149143,N,00422.553639,E,000.0,,221119,,,A*75
$GPGGA,120119.00,5200.149143,N,00422.553639,E,1,28,0.4,26.4,M,46.8,M,,*54
$GPGSV,3,1,11,09,76,072,33,06,52,221,37,23,45,069,27,02,44,289,35*7F
$GPGSV,3,2,11,07,41,165,27,30,13,187,22,03,13,115,19,16,12,061,18*74
$GPGSV,3,3,11,26,11,035,21,29,07,345,23,05,10,295,*4D
$GLGSV,2,1,06,71,55,065,27,87,41,268,35,73,40,106,26,80,25,032,20*6F
$GLGSV,2,2,06,65,18,280,27,70,08,087,*66
$QZGSV,1,1,01,02,04,032,*53
$BDGSV,3,1,10,224,39,075,25,225,33,145,19,230,23,302,25,227,22,246,30*6F
$BDGSV,3,2,10,210,20,081,18,205,11,120,,226,11,031,19,209,06,065,*6F
$BDGSV,3,3,10,229,02,348,,223,00,181,*66
$GAGSV,2,1,08,119,72,071,21,104,46,263,34,112,32,215,30,127,25,057,25*6D
$GAGSV,2,2,08,121,23,113,22,136,12,331,24,130,03,012,,118,11,291,*60
$GPGSA,A,3,02,03,06,07,09,16,23,26,29,30,,,1.5,0.8,1.3*3F
$GNGSA,A,3,02,03,06,07,09,16,23,26,29,30,,,1.5,0.8,1.3*21
$GNGSA,A,3,65,71,73,80,87,,,,,,,,1.5,0.8,1.3*24
$QZGSA,A,3,,,,,,,,,,,,,1.5,0.8,1.3*20
$IMGSA,A,3,,,,,,,,,,,,,1.5,0.8,1.3*2F
$BDGSA,A,3,210,224,225,226,227,230,,,,,,,1.5,0.8,1.3*2F
$GAGSA,A,3,104,112,119,121,127,136,,,,,,,1.5,0.8,1.3*21
$GPRMC,120119.00,A,5200.149143,N,00422.553639,E,000.0,,221119,,,A*74
$GPGGA,120120.00,5200.149143,N,00422.553639,E,1,29,0.4,26.4,M,46.8,M,,*5F
$GPGSV,3,1,11,09,76,072,33,06,52,221,37,23,45,069,27,02,44,289,35*7F
$GPGSV,3,2,11,07,41,165,26,30,13,187,22,03,13,115,20,16,12,061,18*7F
$GPGSV,3,3,11,26,11,035,21,29,07,345,23,05,10,295,*4D
$GLGSV,2,1,06,71,55,065,27,87,41,268,35,73,40,106,26,80,25,032,20*6F
$GLGSV,2,2,06,65,18,280,27,70,08,087,12*65
$QZGSV,1,1,01,02,04,032,*53
$BDGSV,3,1,10,224,39,075,25,225,33,145,20,230,23,302,25,227,22,246,30*65
$BDGSV,3,2,10,210,20,081,20,205,11,120,16,226,11,031,19,209,06,065,*63
$BDGSV,3,3,10,229,02,348,,223,00,181,*66
$GAGSV,2,1,08,119,72,071,21,104,46,263,34,112,32,215,31,127,25,057,25*6C
$GAGSV,2,2,08,121,23,113,22,136,12,331,24,118,11,291,,130,03,012,*60
$GPGSA,A,3,02,03,06,07,09,16,23,26,29,30,,,1.5,0.8,1.3*3F
$GNGSA,A,3,02,03,06,07,09,16,23,26,29,30,,,1.5,0.8,1.3*21
$GNGSA,A,3,65,71,73,80,87,,,,,,,,1.5,0.8,1.3*24
$QZGSA,A,3,,,,,,,,,,,,,1.5,0.8,1.3*20
$IMGSA,A,3,,,,,,,,,,,,,1.5,0.8,1.3*2F
$BDGSA,A,3,205,210,224,225,226,227,230,,,,,,1.5,0.8,1.3*18
$GAGSA,A,3,104,112,119,121,127,136,,,,,,,1.5,0.8,1.3*21
$GPRMC,120120.00,A,5200.149143,N,00422.553639,E,000.0,,221119,,,A*7E
$GPGGA,120121.00,5200.149143,N,00422.553639,E,1,27,0.4,26.4,M,46.8,M,,*50
$GPGSV,3,1,11,09,76,072,33,06,52,221,37,23,45,069,27,02,44,289,35*7F
$GPGSV,3,2,11,07,41,165,26,30,13,187,,03,13,115,21,16,12,061,18*7E
$GPGSV,3,3,11,26,11,035,20,29,07,345,25,05,10,295,*4A
$GLGSV,2,1,06,71,55,065,28,87,41,268,35,73,40,106,26,80,25,032,20*60
$GLGSV,2,2,06,65,18,280,27,70,08,087,*66
$QZGSV,1,1,01,02,04,032,*53
$BDGSV,3,1,10,224,39,075,25,225,33,145,22,230,23,302,27,227,22,246,30*65
$BDGSV,3,2,10,210,20,081,19,205,11,120,15,226,11,031,20,209,06,065,18*69
$BDGSV,3,3,10,229,02,348,,223,00,181,*66
$GAGSV,2,1,08,119,72,071,21,104,46,263,34,112,32,215,31,127,25,057,25*6C
$GAGSV,2,2,08,121,23,113,,136,12,331,24,130,03,012,,118,11,291,*60
$GPGSA,A,3,02,03,06,07,09,16,23,26,29,,,,1.7,0.8,1.5*38
$GNGSA,A,3,02,03,06,07,09,16,23,26,29,,,,1.7,0.8,1.5*26
$GNGSA,A,3,65,71,73,80,87,,,,,,,,1.7,0.8,1.5*20
$QZGSA,A,3,,,,,,,,,,,,,1.7,0.8,1.5*24
$IMGSA,A,3,,,,,,,,,,,,,1.7,0.8,1.5*2B
$BDGSA,A,3,209,210,224,225,226,227,230,,,,,,1.7,0.8,1.5*10
$GAGSA,A,3,104,112,119,127,136,,,,,,,,1.7,0.8,1.5*17
$GPRMC,120121.00,A,5200.149143,N,00422.553639,E,000.0,,221119,,,A*7F
$GPGGA,120122.00,5200.149143,N,00422.553639,E,1,30,0.4,26.4,M,46.8,M,,*55
$GPGSV,3,1,11,09,76,072,33,06,52,221,38,23,45,069,27,02,44,289,36*73
$GPGSV,3,2,11,07,41,165,26,30,13,187,20,03,13,115,21,16,12,061,20*77
$GPGSV,3,3,11,26,11,035,22,29,07,345,26,05,10,295,*4B
$GLGSV,2,1,06,71,55,065,28,87,41,268,35,73,40,106,26,80,25,032,20*60
$GLGSV,2,2,06,65,18,280,27,70,08,087,16*61
$QZGSV,1,1,01,02,04,032,*53
$BDGSV,3,1,10,224,39,075,25,225,33,145,22,230,23,302,27,227,22,246,29*6D
$BDGSV,3,2,10,210,20,081,21,205,11,120,,226,11,031,20,209,06,065,18*66
$BDGSV,3,3,10,229,02,348,,223,00,181,*66
$GAGSV,2,1,08,119,72,071,21,104,46,263,34,112,32,215,31,127,25,057,26*6F
$GAGSV,2,2,08,121,23,113,22,136,12,331,24,130,03,012,,118,11,291,*60
$GPGSA,A,3,02,03,06,07,09,16,23,26,29,30,,,1.7,0.8,1.5*3B
$GNGSA,A,3,02,03,06,07,09,16,23,26,29,30,,,1.7,0.8,1.5*25
$GNGSA,A,3,65,70,71,73,80,87,,,,,,,1.7,0.8,1.5*27
$QZGSA,A,3,,,,,,,,,,,,,1.7,0.8,1.5*24
$IMGSA,A,3,,,,,,,,,,,,,1.7,0.8,1.5*2B
$BDGSA,A,3,209,210,224,225,226,227,230,,,,,,1.7,0.8,1.5*10
$GAGSA,A,3,104,112,119,121,127,136,,,,,,,1.7,0.8,1.5*25
$GPRMC,120122.00,A,5200.149143,N,00422.553639,E,000.0,,221119,,,A*7C
$GPGGA,120123.00,5200.149143,N,00422.553639,E,1,27,0.4,26.4,M,46.8,M,,*52
$GPGSV,3,1,11,09,76,072,33,06,52,220,37,23,45,069,27,02,44,289,36*7D
$GPGSV,3,2,11,07,41,165,26,30,13,187,20,03,13,115,21,16,12,061,20*77
$GPGSV,3,3,11,26,11,035,22,29,07,345,26,05,10,295,*4B
$GLGSV,2,1,06,71,55,065,28,87,41,268,35,73,40,106,26,80,25,032,20*60
$GLGSV,2,2,06,65,18,280,28,70,08,087,15*6D
$QZGSV,1,1,01,02,04,032,*53
$BDGSV,3,1,10,224,39,075,25,225,33,145,22,230,23,302,27,227,22,246,29*6D
$BDGSV,3,2,10,210,20,081,,205,11,120,,226,11,031,20,209,06,065,*6C
$BDGSV,3,3,10,229,02,348,,223,00,181,*66
$GAGSV,2,1,08,119,72,071,21,104,46,263,34,112,32,215,31,127,25,057,25*6C
$GAGSV,2,2,08,121,23,113,25,136,12,331,24,130,03,012,,118,11,291,*67
$GPGSA,A,3,02,03,06,07,09,16,23,26,29,30,,,1.7,0.8,1.5*3B
$GNGSA,A,3,02,03,06,07,09,16,23,26,29,30,,,1.7,0.8,1.5*25
$GNGSA,A,3,65,71,73,80,87,,,,,,,,1.7,0.8,1.5*20
$QZGSA,A,3,,,,,,,,,,,,,1.7,0.8,1.5*24
$IMGSA,A,3,,,,,,,,,,,,,1.7,0.8,1.5*2B
$BDGSA,A,3,224,225,226,227,230,,,,,,,,1.7,0.8,1.5*18
$GAGSA,A,3,104,112,119,121,127,136,,,,,,,1.7,0.8,1.5*25
$GPRMC,120123.00,A,5200.149143,N,00422.553639,E,000.0,,221119,,,A*7D
$GPGGA,120124.00,5200.149143,N,00422.553639,E,1,26,0.4,26.3,M,46.8,M,,*53
$GPGSV,3,1,11,09,76,072,33,06,52,220,37,23,45,069,27,02,44,289,35*7E
$GPGSV,3,2,11,07,41,165,27,30,13,187,,03,13,115,21,16,12,061,20*74
$GPGSV,3,3,11,26,11,035,22,29,07,345,26,05,10,295,*4B
$GLGSV,2,1,06,71,55,065,28,87,41,268,35,73,40,106,26,80,25,032,20*60
$GLGSV,2,2,06,65,18,280,28,70,08,087,*69
$QZGSV,1,1,01,02,04,032,*53
$BDGSV,3,1,10,224,39,075,25,225,33,145,22,230,23,302,26,227,22,246,29*6C
$BDGSV,3,2,10,210,20,081,19,205,11,120,,226,11,031,19,209,06,065,16*69
$BDGSV,3,3,10,229,02,348,,223,00,181,*66
$GAGSV,2,1,08,119,72,071,21,104,46,263,34,112,32,215,31,127,25,057,25*6C
$GAGSV,2,2,08,121,23,113,,136,12,331,24,130,03,012,,118,11,291,*60
$GPGSA,A,3,02,03,06,07,09,16,23,26,29,,,,1.9,0.8,1.7*34
$GNGSA,A,3,02,03,06,07,09,16,23,26,29,,,,1.9,0.8,1.7*2A
$GNGSA,A,3,65,71,73,80,87,,,,,,,,1.9,0.8,1.7*2C
$QZGSA,A,3,,,,,,,,,,,,,1.9,0.8,1.7*28
$IMGSA,A,3,,,,,,,,,,,,,1.9,0.8,1.7*27
$BDGSA,A,3,224,225,226,227,230,,,,,,,,1.9,0.8,1.7*14
$GAGSA,A,3,104,112,119,127,136,,,,,,,,1.9,0.8,1.7*1B
$GPRMC,120124.00,A,5200.149143,N,00422.553639,E,000.0,,221119,,,A*7A
$GPGGA,120125.00,5200.149143,N,00422.553639,E,1,25,0.4,26.3,M,46.8,M,,*51
$GPGSV,3,1,11,09,76,072,33,06,52,220,37,23,45,069,27,02,44,289,35*7E
$GPGSV,3,2,11,07,41,165,27,30,13,187,,03,13,115,20,16,12,061,20*75
$GPGSV,3,3,11,26,11,035,22,29,07,345,26,05,10,295,*4B
$GLGSV,2,1,06,71,55,065,28,87,41,268,35,73,40,106,26,80,25,032,20*60
$GLGSV,2,2,06,65,18,280,28,70,08,087,*69
$QZGSV,1,1,01,02,04,032,*53
$BDGSV,3,1,10,224,39,075,25,225,33,145,21,230,23,302,26,227,22,246,29*6F
$BDGSV,3,2,10,210,20,081,18,205,11,120,,226,11,031,19,209,06,065,15*6B
$BDGSV,3,3,10,229,02,348,,223,00,181,*66
$GAGSV,2,1,08,119,72,071,20,104,46,263,34,112,32,215,31,127,25,057,25*6D
$GAGSV,2,2,08,121,23,113,26,136,12,331,24,130,03,012,,118,11,291,*64
$GPGSA,A,3,02,03,06,07,09,16,23,26,29,,,,1.6,0.8,1.4*38
$GNGSA,A,3,02,03,06,07,09,16,23,26,29,,,,1.6,0.8,1.4*26
$GNGSA,A,3,65,71,73,80,87,,,,,,,,1.6,0.8,1.4*20
$QZGSA,A,3,,,,,,,,,,,,,1.6,0.8,1.4*24
$IMGSA,A,3,,,,,,,,,,,,,1.6,0.8,1.4*2B
$BDGSA,A,3,224,225,226,227,230,,,,,,,,1.6,0.8,1.4*18
$GAGSA,A,3,104,112,119,121,127,136,,,,,,,1.6,0.8,1.4*25
$GPRMC,120125.00,A,5200.149143,N,00422.553639,E,000.0,,221119,,,A*7B
$GPGGA,120126.00,5200.149143,N,00422.553639,E,1,27,0.4,26.3,M,46.8,M,,*50
$GPGSV,3,1,11,09,76,072,33,06,52,220,37,23,45,069,27,02,44,289,35*7E
$GPGSV,3,2,11,07,41,165,27,30,13,187,17,03,13,115,20,16,12,061,20*73
$GPGSV,3,3,11,26,11,035,22,29,07,345,25,05,10,295,*48
$GLGSV,2,1,06,71,55,065,28,87,41,268,35,73,40,106,26,80,25,032,20*60
$GLGSV,2,2,06,65,18,280,28,70,08,087,*69
$QZGSV,1,1,01,02,04,032,*53
$BDGSV,3,1,10,224,39,075,25,225,33,145,21,230,23,302,26,227,22,246,30*67
$BDGSV,3,2,10,210,20,081,18,205,11,120,,226,11,031,20,209,06,065,15*61
$BDGSV,3,3,10,229,02,348,,223,00,181,*66
$GAGSV,2,1,08,119,72,071,20,104,46,263,34,112,32,215,31,127,25,057,25*6D
$GAGSV,2,2,08,121,23,113,,136,12,331,24,130,03,012,,118,11,291,*60
$GPGSA,A,3,02,03,06,07,09,16,23,26,29,30,,,1.6,0.8,1.4*3B
$GNGSA,A,3,02,03,06,07,09,16,23,26,29,30,,,1.6,0.8,1.4*25
$GNGSA,A,3,65,71,73,80,87,,,,,,,,1.6,0.8,1.4*20
$QZGSA,A,3,,,,,,,,,,,,,1.6,0.8,1.4*24
$IMGSA,A,3,,,,,,,,,,,,,1.6,0.8,1.4*2B
$BDGSA,A,3,210,224,225,226,227,230,,,,,,,1.6,0.8,1.4*2B
$GAGSA,A,3,104,112,119,127,136,,,,,,,,1.6,0.8,1.4*17
$GPRMC,120126.00,A,5200.149143,N,00422.553639,E,000.0,,221119,,,A*78
$GPGGA,120127.00,5200.149143,N,00422.553639,E,1,27,0.4,26.3,M,46.8,M,,*51
$GPGSV,3,1,11,09,76,072,33,06,52,220,37,23,45,069,27,02,44,289,35*7E
$GPGSV,3,2,11,07,41,165,27,30,13,187,,03,13,115,19,16,12,061,20*7F
$GPGSV,3,3,11,26,11,035,21,29,07,345,25,05,10,295,*4B
$GLGSV,2,1,06,71,55,065,29,87,41,268,35,73,40,106,25,80,25,032,20*62
$GLGSV,2,2,06,65,18,280,28,70,08,087,13*6B
$QZGSV,1,1,01,02,04,032,*53
$BDGSV,3,1,10,224,39,075,25,225,33,145,21,230,23,302,26,227,22,246,30*67
$BDGSV,3,2,10,210,20,081,17,205,11,120,21,226,11,031,19,209,06,065,15*67
$BDGSV,3,3,10,229,02,348,,223,00,181,*66
$GAGSV,2,1,08,119,72,071,20,104,46,263,34,112,32,215,31,127,25,057,25*6D
$GAGSV,2,2,08,121,23,113,,136,12,331,24,130,03,012,,118,11,291,*60
$GPGSA,A,3,02,03,06,07,09,16,23,26,29,,,,1.8,0.9,1.6*35
$GNGSA,A,3,02,03,06,07,09,16,23,26,29,,,,1.8,0.9,1.6*2B
$GNGSA,A,3,65,71,73,80,87,,,,,,,,1.8,0.9,1.6*2D
$QZGSA,A,3,,,,,,,,,,,,,1.8,0.9,1.6*29
$IMGSA,A,3,,,,,,,,,,,,,1.8,0.9,1.6*26
$BDGSA,A,3,205,210,224,225,226,227,230,,,,,,1.8,0.9,1.6*11
$GAGSA,A,3,104,112,119,127,136,,,,,,,,1.8,0.9,1.6*1A
$GPRMC,120127.00,A,5200.149143,N,00422.553639,E,000.0,,221119,,,A*79
$GPGGA,120128.00,5200.149143,N,00422.553639,E,1,27,0.4,26.2,M,46.8,M,,*5F
$GPGSV,3,1,11,09,76,072,33,06,52,220,37,23,45,069,27,02,44,289,35*7E
$GPGSV,3,2,11,07,41,165,27,30,13,187,,03,13,115,19,16,12,061,19*75
$GPGSV,3,3,11,26,11,035,21,29,07,345,25,05,10,295,*4B
$GLGSV,2,1,06,71,55,065,29,87,41,268,35,73,40,106,25,80,25,032,20*62
$GLGSV,2,2,06,65,18,280,28,70,08,087,*69
$QZGSV,1,1,01,02,04,032,*53
$BDGSV,3,1,10,224,39,075,25,225,33,145,21,230,23,302,26,227,22,246,30*67
$BDGSV,3,2,10,210,20,081,18,205,11,120,,226,11,031,19,209,06,065,16*68
$BDGSV,3,3,10,229,02,348,,223,00,181,*66
$GAGSV,2,1,08,119,72,071,20,104,46,263,34,112,32,215,31,127,25,057,25*6D
$GAGSV,2,2,08,121,23,113,19,136,12,331,24,130,03,012,,118,11,291,*68
$GPGSA,A,3,02,03,06,07,09,16,23,26,29,,,,1.9,0.9,1.6*34
$GNGSA,A,3,02,03,06,07,09,16,23,26,29,,,,1.9,0.9,1.6*2A
$GNGSA,A,3,65,71,73,80,87,,,,,,,,1.9,0.9,1.6*2C
$QZGSA,A,3,,,,,,,,,,,,,1.9,0.9,1.6*28
$IMGSA,A,3,,,,,,,,,,,,,1.9,0.9,1.6*27
$BDGSA,A,3,209,210,224,225,226,227,230,,,,,,1.9,0.9,1.6*1C
$GAGSA,A,3,104,112,119,121,127,136,,,,,,,1.9,0.9,1.6*29
$GPRMC,120128.00,A,5200.149143,N,00422.553639,E,000.0,,221119,,,A*76
$GPGGA,120129.00,5200.149143,N,00422.553639,E,1,27,0.4,26.2,M,46.8,M,,*5E
$GPGSV,3,1,11,09,76,072,33,06,52,220,37,23,45,069,27,02,44,289,35*7E
$GPGSV,3,2,11,07,41,165,27,30,13,187,,03,13,115,18,16,12,061,19*74
$GPGSV,3,3,11,26,11,035,21,29,07,345,25,05,10,295,*4B
$GLGSV,2,1,06,71,55,065,29,87,41,268,34,73,40,106,25,80,25,032,20*63
$GLGSV,2,2,06,65,18,280,28,70,08,087,*69
$QZGSV,1,1,01,02,04,032,*53
$BDGSV,3,1,10,224,39,075,25,225,33,145,21,230,23,302,26,227,22,246,30*67
$BDGSV,3,2,10,210,20,081,,205,11,120,,226,11,031,19,209,06,065,17*60
$BDGSV,3,3,10,229,02,348,,223,00,181,*66
$GAGSV,2,1,08,119,72,071,20,104,46,263,34,112,32,215,31,127,25,057,26*6E
$GAGSV,2,2,08,121,23,113,,136,12,331,24,130,03,012,,118,11,291,*60
$GPGSA,A,3,02,03,06,07,09,16,23,26,29,,,,1.9,0.9,1.6*34
$GNGSA,A,3,02,03,06,07,09,16,23,26,29,,,,1.9,0.9,1.6*2A
$GNGSA,A,3,65,71,73,80,87,,,,,,,,1.9,0.9,1.6*2C
$QZGSA,A,3,,,,,,,,,,,,,1.9,0.9,1.6*28
$IMGSA,A,3,,,,,,,,,,,,,1.9,0.9,1.6*27
$BDGSA,A,3,209,224,225,226,227,230,,,,,,,1.9,0.9,1.6*2F
$GAGSA,A,3,104,112,119,127,136,,,,,,,,1.9,0.9,1.6*1B
$GPRMC,120129.00,A,5200.149143,N,00422.553639,E,000.0,,221119,,,A*77
$GPGGA,120130.00,5200.149143,N,00422.553639,E,1,24,0.4,26.2,M,46.8,M,,*55
$GPGSV,3,1,11,09,76,072,33,06,52,220,37,23,45,069,27,02,44,289,35*7E
$GPGSV,3,2,11,07,41,165,26,30,13,187,,03,13,115,17,16,12,061,19*7A
$GPGSV,3,3,11,26,11,035,21,29,07,345,25,05,10,295,*4B
$GLGSV,2,1,06,71,55,065,30,87,41,268,34,73,40,106,25,80,25,032,21*6A
$GLGSV,2,2,06,65,18,280,28,70,08,088,*66
$QZGSV,1,1,01,02,04,032,*53
$BDGSV,3,1,10,224,39,075,25,225,33,145,21,230,23,302,26,227,22,246,30*67
$BDGSV,3,2,10,210,20,081,,205,11,120,,226,11,031,19,209,06,065,*66
$BDGSV,3,3,10,229,02,348,,223,00,181,*66
$GAGSV,2,1,08,119,72,071,20,104,46,263,34,112,32,215,31,127,25,057,26*6E
$GAGSV,2,2,08,121,23,113,21,136,12,331,24,130,03,012,,118,11,291,*63
$GPGSA,A,3,02,06,07,09,16,23,26,29,,,,,1.6,0.8,1.4*3B
$GNGSA,A,3,02,06,07,09,16,23,26,29,,,,,1.6,0.8,1.4*25
$GNGSA,A,3,65,71,73,80,87,,,,,,,,1.6,0.8,1.4*20
$QZGSA,A,3,,,,,,,,,,,,,1.6,0.8,1.4*24
$IMGSA,A,3,,,,,,,,,,,,,1.6,0.8,1.4*2B
